[
  {
    "name": "평양냉면 본점",
    "category": "음식점 > 한식 > 냉면",
    "phone": "02-965-8254",
    "address": "서울 동대문구 홍릉로 14-3",
    "lat": 37.581661474464845,
    "lng": 127.04492066414231,
    "area": "동대문",
    "kakao_url": "http://place.map.kakao.com/13323543",
    "naver_url": "",
    "source": "kakao"
  },
  {
    "name": "어머니대성집",
    "category": "음식점 > 한식 > 해장국",
    "phone": "02-923-1718",
    "address": "서울 동대문구 왕산로11길 4",
    "lat": 37.57741837425039,
    "lng": 127.02858466713235,
    "area": "동대문",
    "kakao_url": "http://place.map.kakao.com/907979960",
    "naver_url": "",
    "source": "both"
  },
  {
    "name": "강금옥쭈꾸미 경희대점",
    "category": "음식점 > 한식 > 해물,생선",
    "phone": "02-959-0333",
    "address": "서울 동대문구 이문로 40",
    "lat": 37.59086006565248,
    "lng": 127.05665876863098,
    "area": "동대문",
    "kakao_url": "http://place.map.kakao.com/548597963",
    "naver_url": "",
    "source": "kakao"
  },
  {
    "name": "갈비명가이상 답십리점",
    "category": "음식점 > 한식 > 육류,고기 > 갈비",
    "phone": "02-2243-8200",
    "address": "서울 동대문구 천호대로 327",
    "lat": 37.5645583522812,
    "lng": 127.056435105927,
    "area": "동대문",
    "kakao_url": "http://place.map.kakao.com/26874696",
    "naver_url": "https://www.instagram.com/esang1982",
    "source": "both"
  },
  {
    "name": "나정순할매쭈꾸미",
    "category": "음식점 > 한식 > 해물,생선",
    "phone": "02-928-0231",
    "address": "서울 동대문구 무학로 144",
    "lat": 37.57707546781634,
    "lng": 127.03069016915066,
    "area": "동대문",
    "kakao_url": "http://place.map.kakao.com/27175293",
    "naver_url": "",
    "source": "both"
  },
  {
    "name": "성천막국수 답십리점",
    "category": "음식점 > 한식 > 국수",
    "phone": "02-2244-5529",
    "address": "서울 동대문구 답십리로48나길 2",
    "lat": 37.56988437438424,
    "lng": 127.05780878599663,
    "area": "동대문",
    "kakao_url": "http://place.map.kakao.com/9141738",
    "naver_url": "",
    "source": "kakao"
  },
  {
    "name": "왕코등갈비",
    "category": "음식점 > 한식 > 육류,고기 > 갈비",
    "phone": "02-2245-4988",
    "address": "서울 동대문구 한천로 202",
    "lat": 37.5788380161184,
    "lng": 127.068722237189,
    "area": "동대문",
    "kakao_url": "http://place.map.kakao.com/11736088",
    "naver_url": "",
    "source": "kakao"
  },
  {
    "name": "서울뼈구이 본점",
    "category": "음식점 > 한식 > 육류,고기 > 족발,보쌈",
    "phone": "02-965-5838",
    "address": "서울 동대문구 왕산로 274-1",
    "lat": 37.5850349055577,
    "lng": 127.051278756793,
    "area": "동대문",
    "kakao_url": "http://place.map.kakao.com/16531175",
    "naver_url": "",
    "source": "both"
  },
  {
    "name": "대한곱창",
    "category": "음식점 > 한식 > 육류,고기 > 곱창,막창",
    "phone": "",
    "address": "서울 동대문구 천호대로85길 21",
    "lat": 37.56291339805874,
    "lng": 127.06632393848017,
    "area": "동대문",
    "kakao_url": "http://place.map.kakao.com/27123606",
    "naver_url": "",
    "source": "kakao"
  },
  {
    "name": "원조골뱅이전문점",
    "category": "음식점 > 술집 > 실내포장마차",
    "phone": "02-959-6131",
    "address": "서울 동대문구 왕산로37길 7",
    "lat": 37.5802805766107,
    "lng": 127.044057167213,
    "area": "동대문",
    "kakao_url": "http://place.map.kakao.com/16471889",
    "naver_url": "",
    "source": "kakao"
  },
  {
    "name": "혜성칼국수",
    "category": "음식점 > 한식 > 국수 > 칼국수",
    "phone": "02-967-6918",
    "address": "서울 동대문구 왕산로 247-1",
    "lat": 37.583374451618006,
    "lng": 127.04897707662815,
    "area": "동대문",
    "kakao_url": "http://place.map.kakao.com/16937330",
    "naver_url": "",
    "source": "both"
  },
  {
    "name": "킹 수제만두",
    "category": "음식점 > 분식",
    "phone": "02-926-0288",
    "address": "서울 동대문구 한빛로 3",
    "lat": 37.5764841338019,
    "lng": 127.024144402603,
    "area": "동대문",
    "kakao_url": "http://place.map.kakao.com/1731584284",
    "naver_url": "",
    "source": "kakao"
  },
  {
    "name": "청량회관",
    "category": "음식점 > 술집 > 일본식주점",
    "phone": "",
    "address": "서울 동대문구 서울시립대로 164",
    "lat": 37.58330069632241,
    "lng": 127.05483706251121,
    "area": "동대문",
    "kakao_url": "http://place.map.kakao.com/243138433",
    "naver_url": "",
    "source": "kakao"
  },
  {
    "name": "굿갓레스토랑 회기직영점",
    "category": "음식점 > 양식 > 이탈리안",
    "phone": "070-7576-2497",
    "address": "서울 동대문구 회기로19길 12",
    "lat": 37.5920763100587,
    "lng": 127.052983151872,
    "area": "동대문",
    "kakao_url": "http://place.map.kakao.com/700254332",
    "naver_url": "",
    "source": "both"
  },
  {
    "name": "장어세상",
    "category": "음식점 > 한식 > 해물,생선 > 장어",
    "phone": "02-2243-3355",
    "address": "서울 동대문구 장한로 9",
    "lat": 37.5624457186969,
    "lng": 127.064813650324,
    "area": "동대문",
    "kakao_url": "http://place.map.kakao.com/1374213618",
    "naver_url": "",
    "source": "kakao"
  },
  {
    "name": "용두동복집",
    "category": "음식점 > 한식 > 해물,생선 > 복어",
    "phone": "02-921-5936",
    "address": "서울 동대문구 왕산로16길 9",
    "lat": 37.5774771428975,
    "lng": 127.031331083865,
    "area": "동대문",
    "kakao_url": "http://place.map.kakao.com/16675792",
    "naver_url": "",
    "source": "kakao"
  },
  {
    "name": "흥부골숯불돼지왕갈비 본점",
    "category": "음식점 > 한식 > 육류,고기 > 갈비",
    "phone": "02-2245-2006",
    "address": "서울 동대문구 장한로24길 46",
    "lat": 37.569866750140385,
    "lng": 127.07331990430515,
    "area": "동대문",
    "kakao_url": "http://place.map.kakao.com/10963789",
    "naver_url": "",
    "source": "both"
  },
  {
    "name": "모두랑즉석떡볶이",
    "category": "음식점 > 분식 > 떡볶이",
    "phone": "02-965-5696",
    "address": "서울 동대문구 회기로23가길 20",
    "lat": 37.5920793176494,
    "lng": 127.054295475736,
    "area": "동대문",
    "kakao_url": "http://place.map.kakao.com/27173207",
    "naver_url": "",
    "source": "kakao"
  },
  {
    "name": "크치치킨 고대본점",
    "category": "음식점 > 치킨",
    "phone": "02-957-9285",
    "address": "서울 동대문구 고산자로56길 7",
    "lat": 37.588110583126124,
    "lng": 127.03777452052638,
    "area": "동대문",
    "kakao_url": "http://place.map.kakao.com/641407772",
    "naver_url": "",
    "source": "kakao"
  },
  {
    "name": "카리스",
    "category": "음식점 > 양식",
    "phone": "02-598-0554",
    "address": "서울 동대문구 제기로 148",
    "lat": 37.58600158259917,
    "lng": 127.04937280201497,
    "area": "동대문",
    "kakao_url": "http://place.map.kakao.com/14862510",
    "naver_url": "",
    "source": "kakao"
  },
  {
    "name": "금강산숯불갈비",
    "category": "음식점 > 한식 > 육류,고기 > 갈비",
    "phone": "02-929-5052",
    "address": "서울 동대문구 하정로3길 7",
    "lat": 37.5754493729114,
    "lng": 127.026113811498,
    "area": "동대문",
    "kakao_url": "http://place.map.kakao.com/11395414",
    "naver_url": "",
    "source": "kakao"
  },
  {
    "name": "해다원해물찜",
    "category": "음식점 > 한식 > 해물,생선",
    "phone": "02-2242-8449",
    "address": "서울 동대문구 천호대로85길 17",
    "lat": 37.56285035884644,
    "lng": 127.06626955401771,
    "area": "동대문",
    "kakao_url": "http://place.map.kakao.com/1351765927",
    "naver_url": "",
    "source": "kakao"
  },
  {
    "name": "수상한막창",
    "category": "음식점 > 한식 > 육류,고기 > 곱창,막창",
    "phone": "02-2244-1011",
    "address": "서울 동대문구 전농로 53",
    "lat": 37.569685670423276,
    "lng": 127.0569528790967,
    "area": "동대문",
    "kakao_url": "http://place.map.kakao.com/27262505",
    "naver_url": "",
    "source": "kakao"
  },
  {
    "name": "갈풍집 장한평역점",
    "category": "음식점 > 한식 > 육류,고기",
    "phone": "02-2245-2212",
    "address": "서울 동대문구 장한로2길 41",
    "lat": 37.56207656655192,
    "lng": 127.06757047733355,
    "area": "동대문",
    "kakao_url": "http://place.map.kakao.com/505683747",
    "naver_url": "",
    "source": "kakao"
  },
  {
    "name": "갈치와고갈비",
    "category": "음식점 > 한식 > 해물,생선",
    "phone": "02-2237-9292",
    "address": "서울 동대문구 천호대로 15-9",
    "lat": 37.57515759848893,
    "lng": 127.02543675460477,
    "area": "동대문",
    "kakao_url": "http://place.map.kakao.com/14494936",
    "naver_url": "",
    "source": "kakao"
  },
  {
    "name": "고깃집도훈 경희본점",
    "category": "음식점 > 한식 > 육류,고기",
    "phone": "02-965-4146",
    "address": "서울 동대문구 회기로21길 29",
    "lat": 37.5926997152971,
    "lng": 127.053163629112,
    "area": "동대문",
    "kakao_url": "http://place.map.kakao.com/1079777463",
    "naver_url": "",
    "source": "kakao"
  },
  {
    "name": "차칸스시",
    "category": "음식점 > 일식 > 초밥,롤",
    "phone": "0503-7150-3582",
    "address": "서울 동대문구 회기로25길 52",
    "lat": 37.591977284492955,
    "lng": 127.05668226132694,
    "area": "동대문",
    "kakao_url": "http://place.map.kakao.com/1726533500",
    "naver_url": "",
    "source": "kakao"
  },
  {
    "name": "곽만근갈비탕이야기 답십리점",
    "category": "음식점 > 한식 > 육류,고기 > 갈비",
    "phone": "02-2216-5900",
    "address": "서울 동대문구 천호대로 289",
    "lat": 37.5669204843699,
    "lng": 127.053154357621,
    "area": "동대문",
    "kakao_url": "http://place.map.kakao.com/401776719",
    "naver_url": "",
    "source": "kakao"
  },
  {
    "name": "보성장",
    "category": "음식점 > 한식",
    "phone": "02-2212-7512",
    "address": "서울 동대문구 서울시립대로 122",
    "lat": 37.5813332532677,
    "lng": 127.052127576006,
    "area": "동대문",
    "kakao_url": "http://place.map.kakao.com/16619213",
    "naver_url": "",
    "source": "kakao"
  },
  {
    "name": "홍익돈까스 회기점",
    "category": "음식점 > 일식 > 돈까스,우동 > 홍익돈까스",
    "phone": "02-2242-9604",
    "address": "서울 동대문구 망우로21길 52",
    "lat": 37.590335868574314,
    "lng": 127.05994192963624,
    "area": "동대문",
    "kakao_url": "http://place.map.kakao.com/18568145",
    "naver_url": "",
    "source": "kakao"
  },
  {
    "name": "할머니냉면",
    "category": "음식점 > 한식 > 냉면",
    "phone": "02-963-5362",
    "address": "서울 동대문구 왕산로37길 51",
    "lat": 37.5822701030824,
    "lng": 127.043700583545,
    "area": "동대문",
    "kakao_url": "http://place.map.kakao.com/10926416",
    "naver_url": "",
    "source": "both"
  },
  {
    "name": "수타생고기 본점",
    "category": "음식점 > 한식 > 육류,고기",
    "phone": "02-2233-1362",
    "address": "서울 동대문구 천호대로2길 23-3",
    "lat": 37.5740910812061,
    "lng": 127.024197966733,
    "area": "동대문",
    "kakao_url": "http://place.map.kakao.com/1105691308",
    "naver_url": "",
    "source": "kakao"
  },
  {
    "name": "심양 경희대점",
    "category": "음식점 > 중식 > 양꼬치",
    "phone": "02-959-9213",
    "address": "서울 동대문구 회기로 137",
    "lat": 37.5914389231879,
    "lng": 127.051822114805,
    "area": "동대문",
    "kakao_url": "http://place.map.kakao.com/18888767",
    "naver_url": "",
    "source": "kakao"
  },
  {
    "name": "크치치킨 회기점",
    "category": "음식점 > 치킨",
    "phone": "02-963-9285",
    "address": "서울 동대문구 회기로 125",
    "lat": 37.5916088440804,
    "lng": 127.050590311081,
    "area": "동대문",
    "kakao_url": "http://place.map.kakao.com/355730477",
    "naver_url": "",
    "source": "kakao"
  },
  {
    "name": "오징어데이",
    "category": "음식점 > 한식 > 해물,생선 > 회",
    "phone": "02-6414-6018",
    "address": "서울 동대문구 천호대로83길 89",
    "lat": 37.565944200936,
    "lng": 127.066586960699,
    "area": "동대문",
    "kakao_url": "http://place.map.kakao.com/27228243",
    "naver_url": "",
    "source": "kakao"
  },
  {
    "name": "홍릉각",
    "category": "음식점 > 중식",
    "phone": "02-969-7787",
    "address": "서울 동대문구 약령시로 90",
    "lat": 37.58288320227021,
    "lng": 127.03996258689769,
    "area": "동대문",
    "kakao_url": "http://place.map.kakao.com/8620226",
    "naver_url": "",
    "source": "kakao"
  },
  {
    "name": "만복 원조 보쌈칼국수",
    "category": "음식점 > 한식 > 육류,고기 > 족발,보쌈",
    "phone": "02-2245-2080",
    "address": "서울 동대문구 장한로 53",
    "lat": 37.56590142269579,
    "lng": 127.06734755372632,
    "area": "동대문",
    "kakao_url": "http://place.map.kakao.com/16042104",
    "naver_url": "",
    "source": "kakao"
  },
  {
    "name": "옛날짜장",
    "category": "음식점 > 중식 > 중국요리",
    "phone": "02-961-6171",
    "address": "서울 동대문구 왕산로26길 13",
    "lat": 37.5774756347048,
    "lng": 127.036574816894,
    "area": "동대문",
    "kakao_url": "http://place.map.kakao.com/16849550",
    "naver_url": "",
    "source": "kakao"
  },
  {
    "name": "복돈우리돼지국밥",
    "category": "음식점 > 한식 > 국밥",
    "phone": "02-2214-2520",
    "address": "서울 동대문구 보문로 20",
    "lat": 37.577293377347175,
    "lng": 127.02339636951275,
    "area": "동대문",
    "kakao_url": "http://place.map.kakao.com/1625938182",
    "naver_url": "",
    "source": "kakao"
  },
  {
    "name": "부산밀면냉면",
    "category": "음식점 > 한식 > 냉면",
    "phone": "02-969-9008",
    "address": "서울 동대문구 경희대로4길 73",
    "lat": 37.59135580608297,
    "lng": 127.05625152473797,
    "area": "동대문",
    "kakao_url": "http://place.map.kakao.com/17007209",
    "naver_url": "",
    "source": "kakao"
  },
  {
    "name": "경동한우정육식당",
    "category": "음식점 > 한식 > 육류,고기",
    "phone": "02-962-0962",
    "address": "서울 동대문구 고산자로 421",
    "lat": 37.577341833371364,
    "lng": 127.03801247376539,
    "area": "동대문",
    "kakao_url": "http://place.map.kakao.com/989717069",
    "naver_url": "",
    "source": "kakao"
  },
  {
    "name": "아지매식당",
    "category": "음식점 > 한식",
    "phone": "02-959-1150",
    "address": "서울 동대문구 휘경로 6-9",
    "lat": 37.59571259167,
    "lng": 127.060716235536,
    "area": "동대문",
    "kakao_url": "http://place.map.kakao.com/20258074",
    "naver_url": "",
    "source": "kakao"
  },
  {
    "name": "40년전통할머니추어탕",
    "category": "음식점 > 한식 > 해물,생선 > 추어",
    "phone": "02-3394-8122",
    "address": "서울 동대문구 장한로 39",
    "lat": 37.5648477340555,
    "lng": 127.066506753451,
    "area": "동대문",
    "kakao_url": "http://place.map.kakao.com/1278852549",
    "naver_url": "",
    "source": "kakao"
  },
  {
    "name": "신화쭈꾸미 회기점",
    "category": "음식점 > 한식 > 해물,생선",
    "phone": "02-963-8886",
    "address": "서울 동대문구 경희대로4길 74",
    "lat": 37.5912602620803,
    "lng": 127.056332976665,
    "area": "동대문",
    "kakao_url": "http://place.map.kakao.com/26869818",
    "naver_url": "",
    "source": "kakao"
  },
  {
    "name": "키작은아저씨",
    "category": "음식점 > 분식",
    "phone": "02-963-1886",
    "address": "서울 동대문구 왕산로35길 21",
    "lat": 37.58064677690523,
    "lng": 127.0429807417922,
    "area": "동대문",
    "kakao_url": "http://place.map.kakao.com/1928709820",
    "naver_url": "",
    "source": "kakao"
  },
  {
    "name": "화포식당 잠실점",
    "category": "음식점 > 한식 > 육류,고기 > 삼겹살",
    "phone": "02-421-1971",
    "address": "서울 송파구 백제고분로 187",
    "lat": 37.5047378538793,
    "lng": 127.087975704541,
    "area": "잠실",
    "kakao_url": "http://place.map.kakao.com/272016174",
    "naver_url": "",
    "source": "kakao"
  },
  {
    "name": "남경막국수 가족1",
    "category": "음식점 > 한식 > 국수",
    "phone": "",
    "address": "서울 송파구 석촌호수로 74",
    "lat": 37.50964296341016,
    "lng": 127.08546715614426,
    "area": "잠실",
    "kakao_url": "http://place.map.kakao.com/14878561",
    "naver_url": "",
    "source": "kakao"
  },
  {
    "name": "파오파오 새마을시장본점",
    "category": "음식점 > 분식",
    "phone": "02-412-9198",
    "address": "서울 송파구 석촌호수로12길 22",
    "lat": 37.50890155968363,
    "lng": 127.08404008178898,
    "area": "잠실",
    "kakao_url": "http://place.map.kakao.com/11952404",
    "naver_url": "",
    "source": "kakao"
  },
  {
    "name": "청국장과보리밥 잠실점",
    "category": "음식점 > 한식",
    "phone": "02-2042-1234",
    "address": "서울 송파구 백제고분로20길 4",
    "lat": 37.5044689226499,
    "lng": 127.086116085342,
    "area": "잠실",
    "kakao_url": "http://place.map.kakao.com/22513020",
    "naver_url": "",
    "source": "kakao"
  },
  {
    "name": "미강식당",
    "category": "음식점 > 한식 > 육류,고기 > 삼겹살",
    "phone": "0502-5550-4555",
    "address": "서울 송파구 백제고분로 122",
    "lat": 37.50626055174282,
    "lng": 127.08039080827098,
    "area": "잠실",
    "kakao_url": "http://place.map.kakao.com/72177172",
    "naver_url": "",
    "source": "kakao"
  },
  {
    "name": "쭈꾸미도사 잠실새내점",
    "category": "음식점 > 한식 > 해물,생선",
    "phone": "02-419-0523",
    "address": "서울 송파구 백제고분로7길 30",
    "lat": 37.5106886415406,
    "lng": 127.08220524858,
    "area": "잠실",
    "kakao_url": "http://place.map.kakao.com/1999496197",
    "naver_url": "",
    "source": "kakao"
  },
  {
    "name": "와인에빠진저팔계",
    "category": "음식점 > 한식 > 육류,고기",
    "phone": "02-415-3858",
    "address": "서울 송파구 백제고분로9길 45",
    "lat": 37.510034980486,
    "lng": 127.084100166967,
    "area": "잠실",
    "kakao_url": "http://place.map.kakao.com/9950732",
    "naver_url": "",
    "source": "kakao"
  },
  {
    "name": "신천포차",
    "category": "음식점 > 술집 > 실내포장마차",
    "phone": "02-415-7838",
    "address": "서울 송파구 석촌호수로12길 8",
    "lat": 37.5092806690364,
    "lng": 127.085592288053,
    "area": "잠실",
    "kakao_url": "http://place.map.kakao.com/7980341",
    "naver_url": "",
    "source": "kakao"
  },
  {
    "name": "태민양꼬치",
    "category": "음식점 > 중식 > 양꼬치",
    "phone": "02-412-1588",
    "address": "서울 송파구 백제고분로7길 32-18",
    "lat": 37.5100072461827,
    "lng": 127.082543815368,
    "area": "잠실",
    "kakao_url": "http://place.map.kakao.com/20000047",
    "naver_url": "",
    "source": "kakao"
  },
  {
    "name": "호시아이",
    "category": "음식점 > 일식",
    "phone": "02-6015-3355",
    "address": "서울 송파구 올림픽로12길 48-1",
    "lat": 37.5073000236217,
    "lng": 127.083404923002,
    "area": "잠실",
    "kakao_url": "http://place.map.kakao.com/19901368",
    "naver_url": "",
    "source": "kakao"
  },
  {
    "name": "대성정육식당",
    "category": "음식점 > 한식 > 육류,고기",
    "phone": "02-412-2292",
    "address": "서울 송파구 석촌호수로12길 1-6",
    "lat": 37.5089198993036,
    "lng": 127.086098577756,
    "area": "잠실",
    "kakao_url": "http://place.map.kakao.com/12394987",
    "naver_url": "",
    "source": "kakao"
  },
  {
    "name": "오징어청춘 신천점",
    "category": "음식점 > 한식 > 해물,생선",
    "phone": "02-415-6454",
    "address": "서울 송파구 백제고분로15길 58",
    "lat": 37.5103418657159,
    "lng": 127.08460043622206,
    "area": "잠실",
    "kakao_url": "http://place.map.kakao.com/8453347",
    "naver_url": "",
    "source": "kakao"
  },
  {
    "name": "동래정 잠실새내점",
    "category": "음식점 > 한식 > 육류,고기 > 동래정",
    "phone": "",
    "address": "서울 송파구 백제고분로9길 51",
    "lat": 37.51013359033782,
    "lng": 127.08480039678572,
    "area": "잠실",
    "kakao_url": "http://place.map.kakao.com/2130379074",
    "naver_url": "",
    "source": "kakao"
  },
  {
    "name": "당산오돌 잠실신천점",
    "category": "음식점 > 한식 > 육류,고기",
    "phone": "02-2203-1233",
    "address": "서울 송파구 백제고분로9길 31",
    "lat": 37.5097765449639,
    "lng": 127.082606899753,
    "area": "잠실",
    "kakao_url": "http://place.map.kakao.com/693483796",
    "naver_url": "",
    "source": "kakao"
  },
  {
    "name": "진원소우 잠실새내점",
    "category": "음식점 > 한식 > 육류,고기",
    "phone": "02-420-9291",
    "address": "서울 송파구 백제고분로7길 26",
    "lat": 37.51054844591679,
    "lng": 127.0816848095097,
    "area": "잠실",
    "kakao_url": "http://place.map.kakao.com/1346139956",
    "naver_url": "",
    "source": "kakao"
  },
  {
    "name": "팔팔감자탕",
    "category": "음식점 > 한식 > 감자탕",
    "phone": "02-423-9868",
    "address": "서울 송파구 백제고분로7길 6-5",
    "lat": 37.5100273394857,
    "lng": 127.079521679422,
    "area": "잠실",
    "kakao_url": "http://place.map.kakao.com/648596761",
    "naver_url": "",
    "source": "kakao"
  },
  {
    "name": "초대창 잠실새내점",
    "category": "음식점 > 한식 > 육류,고기 > 곱창,막창",
    "phone": "02-416-9292",
    "address": "서울 송파구 백제고분로9길 17",
    "lat": 37.5095668037401,
    "lng": 127.081027736457,
    "area": "잠실",
    "kakao_url": "http://place.map.kakao.com/617218371",
    "naver_url": "",
    "source": "kakao"
  },
  {
    "name": "나폴레옹제과점 잠실점",
    "category": "음식점 > 간식 > 제과,베이커리",
    "phone": "",
    "address": "서울 송파구 백제고분로 67",
    "lat": 37.510766525232626,
    "lng": 127.07898181772742,
    "area": "잠실",
    "kakao_url": "http://place.map.kakao.com/12443865",
    "naver_url": "",
    "source": "kakao"
  },
  {
    "name": "유키토리",
    "category": "음식점 > 술집 > 일본식주점",
    "phone": "0503-7152-7397",
    "address": "서울 송파구 백제고분로15길 52",
    "lat": 37.5099228285292,
    "lng": 127.08469836425,
    "area": "잠실",
    "kakao_url": "http://place.map.kakao.com/1576825700",
    "naver_url": "",
    "source": "kakao"
  },
  {
    "name": "폴스",
    "category": "음식점 > 양식",
    "phone": "010-4248-2617",
    "address": "서울 송파구 삼전로 91",
    "lat": 37.5066557780256,
    "lng": 127.089594148844,
    "area": "잠실",
    "kakao_url": "http://place.map.kakao.com/1646627925",
    "naver_url": "",
    "source": "kakao"
  },
  {
    "name": "깻잎닭강정",
    "category": "음식점 > 간식 > 닭강정",
    "phone": "02-2203-1770",
    "address": "서울 송파구 석촌호수로12길 13",
    "lat": 37.5089135232696,
    "lng": 127.084949443604,
    "area": "잠실",
    "kakao_url": "http://place.map.kakao.com/24636564",
    "naver_url": "",
    "source": "kakao"
  },
  {
    "name": "주택가",
    "category": "음식점 > 술집 > 호프,요리주점",
    "phone": "",
    "address": "서울 송파구 올림픽로10길 26",
    "lat": 37.509330569802,
    "lng": 127.081276309169,
    "area": "잠실",
    "kakao_url": "http://place.map.kakao.com/750694763",
    "naver_url": "",
    "source": "kakao"
  },
  {
    "name": "강강술래 롯데잠실점",
    "category": "음식점 > 한식",
    "phone": "",
    "address": "서울 송파구 올림픽로 240",
    "lat": 37.51206753539616,
    "lng": 127.09932788692039,
    "area": "잠실",
    "kakao_url": "http://place.map.kakao.com/345223778",
    "naver_url": "",
    "source": "kakao"
  },
  {
    "name": "장원보쌈왕족발",
    "category": "음식점 > 한식 > 육류,고기 > 족발,보쌈",
    "phone": "02-423-8555",
    "address": "서울 송파구 백제고분로7길 46",
    "lat": 37.510704577341315,
    "lng": 127.0838882794484,
    "area": "잠실",
    "kakao_url": "http://place.map.kakao.com/8063400",
    "naver_url": "",
    "source": "kakao"
  },
  {
    "name": "송어야",
    "category": "음식점 > 한식 > 해물,생선 > 회",
    "phone": "02-420-9777",
    "address": "서울 송파구 백제고분로9길 9",
    "lat": 37.5094782023992,
    "lng": 127.080151085536,
    "area": "잠실",
    "kakao_url": "http://place.map.kakao.com/1996880575",
    "naver_url": "",
    "source": "kakao"
  },
  {
    "name": "미미국수 잠실점",
    "category": "음식점 > 한식 > 국수",
    "phone": "02-420-3269",
    "address": "서울 송파구 백제고분로19길 6",
    "lat": 37.5053099757009,
    "lng": 127.08677980332645,
    "area": "잠실",
    "kakao_url": "http://place.map.kakao.com/1383263595",
    "naver_url": "",
    "source": "kakao"
  },
  {
    "name": "담은갈비 송파잠실점",
    "category": "음식점 > 한식 > 육류,고기 > 갈비",
    "phone": "02-423-8053",
    "address": "서울 송파구 삼전로 93",
    "lat": 37.50685219946854,
    "lng": 127.08959099059112,
    "area": "잠실",
    "kakao_url": "http://place.map.kakao.com/12347827",
    "naver_url": "",
    "source": "kakao"
  },
  {
    "name": "큰손닭한마리 잠실새내본점",
    "category": "음식점 > 한식 > 육류,고기 > 닭요리",
    "phone": "010-2740-3366",
    "address": "서울 송파구 백제고분로15길 59",
    "lat": 37.51052856594256,
    "lng": 127.08433145591687,
    "area": "잠실",
    "kakao_url": "http://place.map.kakao.com/2117466906",
    "naver_url": "",
    "source": "kakao"
  },
  {
    "name": "천수횟집",
    "category": "음식점 > 한식 > 해물,생선 > 회",
    "phone": "02-424-9643",
    "address": "서울 송파구 석촌호수로12길 10",
    "lat": 37.50932952860327,
    "lng": 127.08530845365058,
    "area": "잠실",
    "kakao_url": "http://place.map.kakao.com/2039595362",
    "naver_url": "",
    "source": "kakao"
  },
  {
    "name": "생생아구",
    "category": "음식점 > 한식 > 해물,생선 > 아구",
    "phone": "02-419-2922",
    "address": "서울 송파구 백제고분로7길 8-37",
    "lat": 37.5087906389134,
    "lng": 127.080293990996,
    "area": "잠실",
    "kakao_url": "http://place.map.kakao.com/939202585",
    "naver_url": "",
    "source": "kakao"
  },
  {
    "name": "부일갈매기",
    "category": "음식점 > 한식 > 육류,고기",
    "phone": "02-412-1462",
    "address": "서울 송파구 삼전로13길 4",
    "lat": 37.5072916470656,
    "lng": 127.089910459413,
    "area": "잠실",
    "kakao_url": "http://place.map.kakao.com/27303080",
    "naver_url": "",
    "source": "kakao"
  },
  {
    "name": "알루메 (AL Lume)",
    "category": "음식점 > 양식 > 이탈리안",
    "phone": "02-421-1126",
    "address": "서울 송파구 백제고분로9길 36",
    "lat": 37.50964659917411,
    "lng": 127.08289404107254,
    "area": "잠실",
    "kakao_url": "http://place.map.kakao.com/8000883",
    "naver_url": "",
    "source": "kakao"
  },
  {
    "name": "탄포포",
    "category": "음식점 > 술집 > 일본식주점",
    "phone": "",
    "address": "서울 송파구 백제고분로7길 52-19",
    "lat": 37.5098342823137,
    "lng": 127.085043232693,
    "area": "잠실",
    "kakao_url": "http://place.map.kakao.com/1871752626",
    "naver_url": "",
    "source": "kakao"
  },
  {
    "name": "원조갯마을낙지전문점",
    "category": "음식점 > 한식 > 해물,생선",
    "phone": "02-412-7895",
    "address": "서울 송파구 백제고분로9길 6",
    "lat": 37.508964016241066,
    "lng": 127.07972639907062,
    "area": "잠실",
    "kakao_url": "http://place.map.kakao.com/8171555",
    "naver_url": "",
    "source": "kakao"
  },
  {
    "name": "청기와타운 잠실새내점",
    "category": "음식점 > 한식 > 육류,고기 > 갈비",
    "phone": "0507-1429-8101",
    "address": "서울 송파구 올림픽로8길 10",
    "lat": 37.5107325183692,
    "lng": 127.079977112788,
    "area": "잠실",
    "kakao_url": "http://place.map.kakao.com/1617078296",
    "naver_url": "",
    "source": "kakao"
  },
  {
    "name": "알라딘양고기",
    "category": "음식점 > 한식",
    "phone": "02-421-5534",
    "address": "서울 송파구 백제고분로7길 42-16",
    "lat": 37.5100965058677,
    "lng": 127.08373830057,
    "area": "잠실",
    "kakao_url": "http://place.map.kakao.com/21405772",
    "naver_url": "",
    "source": "kakao"
  },
  {
    "name": "멸치집 본점",
    "category": "음식점 > 한식 > 해물,생선",
    "phone": "02-594-0000",
    "address": "서울 송파구 백제고분로15길 44",
    "lat": 37.5092992179081,
    "lng": 127.084859397798,
    "area": "잠실",
    "kakao_url": "http://place.map.kakao.com/12751018",
    "naver_url": "",
    "source": "kakao"
  },
  {
    "name": "아리수만찬 잠실",
    "category": "음식점 > 한식 > 육류,고기",
    "phone": "02-2632-2100",
    "address": "서울 송파구 잠실동 1-2",
    "lat": 37.51884243966242,
    "lng": 127.08131490438089,
    "area": "잠실",
    "kakao_url": "http://place.map.kakao.com/1172624575",
    "naver_url": "",
    "source": "kakao"
  },
  {
    "name": "신흥정육식당",
    "category": "음식점 > 한식 > 육류,고기",
    "phone": "02-423-6692",
    "address": "서울 송파구 올림픽로10길 8",
    "lat": 37.5109778622906,
    "lng": 127.080902582898,
    "area": "잠실",
    "kakao_url": "http://place.map.kakao.com/750570756",
    "naver_url": "",
    "source": "kakao"
  },
  {
    "name": "봉피양 잠실점",
    "category": "음식점 > 한식",
    "phone": "02-2143-7008",
    "address": "서울 송파구 올림픽로 240",
    "lat": 37.512147680937154,
    "lng": 127.09830323552436,
    "area": "잠실",
    "kakao_url": "http://place.map.kakao.com/935743471",
    "naver_url": "",
    "source": "kakao"
  },
  {
    "name": "태풍수산1997",
    "category": "음식점 > 한식 > 해물,생선 > 회",
    "phone": "",
    "address": "서울 송파구 백제고분로7길 42",
    "lat": 37.510661286481046,
    "lng": 127.08356329400799,
    "area": "잠실",
    "kakao_url": "http://place.map.kakao.com/21547569",
    "naver_url": "",
    "source": "kakao"
  },
  {
    "name": "도삭면공방",
    "category": "음식점 > 중식",
    "phone": "02-417-8868",
    "address": "서울 송파구 백제고분로7길 8-12",
    "lat": 37.50988304776105,
    "lng": 127.0797160660903,
    "area": "잠실",
    "kakao_url": "http://place.map.kakao.com/1181524598",
    "naver_url": "",
    "source": "kakao"
  },
  {
    "name": "이치고",
    "category": "음식점 > 일식",
    "phone": "02-412-0481",
    "address": "서울 송파구 백제고분로11길 6-7",
    "lat": 37.5074969292484,
    "lng": 127.080098071762,
    "area": "잠실",
    "kakao_url": "http://place.map.kakao.com/777232005",
    "naver_url": "",
    "source": "kakao"
  },
  {
    "name": "하얼빈양꼬치 잠실본점",
    "category": "음식점 > 중식 > 양꼬치",
    "phone": "02-421-9288",
    "address": "서울 송파구 백제고분로17길 45",
    "lat": 37.50971251231528,
    "lng": 127.0852297165387,
    "area": "잠실",
    "kakao_url": "http://place.map.kakao.com/21211219",
    "naver_url": "",
    "source": "kakao"
  },
  {
    "name": "쌀통닭 신천점",
    "category": "음식점 > 치킨 > 쌀통닭",
    "phone": "02-421-5235",
    "address": "서울 송파구 올림픽로12길 14",
    "lat": 37.51035028381267,
    "lng": 127.08289368820101,
    "area": "잠실",
    "kakao_url": "http://place.map.kakao.com/24195658",
    "naver_url": "",
    "source": "kakao"
  },
  {
    "name": "엘리스리틀이태리",
    "category": "음식점 > 양식 > 이탈리안",
    "phone": "",
    "address": "서울 송파구 백제고분로41길 43-21",
    "lat": 37.5086380614148,
    "lng": 127.104832570447,
    "area": "송파",
    "kakao_url": "http://place.map.kakao.com/27311545",
    "naver_url": "",
    "source": "kakao"
  },
  {
    "name": "흥부골숯불돼지왕갈비",
    "category": "음식점 > 한식 > 육류,고기 > 갈비",
    "phone": "02-418-0003",
    "address": "서울 송파구 백제고분로33길 35",
    "lat": 37.5057169432455,
    "lng": 127.098626180478,
    "area": "송파",
    "kakao_url": "http://place.map.kakao.com/827156157",
    "naver_url": "",
    "source": "kakao"
  },
  {
    "name": "셰프의부엌",
    "category": "음식점 > 양식",
    "phone": "",
    "address": "서울 송파구 가락로 259",
    "lat": 37.51112084146608,
    "lng": 127.11858072538102,
    "area": "송파",
    "kakao_url": "http://place.map.kakao.com/27232166",
    "naver_url": "",
    "source": "kakao"
  },
  {
    "name": "라디오헤드펍",
    "category": "음식점 > 술집 > 호프,요리주점",
    "phone": "02-417-0205",
    "address": "서울 송파구 올림픽로32길 22-6",
    "lat": 37.514022186285224,
    "lng": 127.10911568636769,
    "area": "송파",
    "kakao_url": "http://place.map.kakao.com/188105400",
    "naver_url": "",
    "source": "kakao"
  },
  {
    "name": "청춘",
    "category": "음식점 > 한식 > 육류,고기",
    "phone": "02-417-3313",
    "address": "서울 송파구 위례성대로 98",
    "lat": 37.5135585074911,
    "lng": 127.122552481215,
    "area": "송파",
    "kakao_url": "http://place.map.kakao.com/130448879",
    "naver_url": "",
    "source": "kakao"
  },
  {
    "name": "미엔아이 송파점",
    "category": "음식점 > 중식",
    "phone": "02-422-0652",
    "address": "서울 송파구 오금로16길 5",
    "lat": 37.5108830765665,
    "lng": 127.109129213489,
    "area": "송파",
    "kakao_url": "http://place.map.kakao.com/1440802569",
    "naver_url": "",
    "source": "kakao"
  },
  {
    "name": "툇마루밥상",
    "category": "음식점 > 한식",
    "phone": "02-409-6979",
    "address": "서울 송파구 송파대로 111",
    "lat": 37.481419992737145,
    "lng": 127.12219696705921,
    "area": "송파",
    "kakao_url": "http://place.map.kakao.com/8568141",
    "naver_url": "",
    "source": "kakao"
  },
  {
    "name": "마싯내",
    "category": "음식점 > 일식 > 돈까스,우동",
    "phone": "02-2202-3979",
    "address": "서울 송파구 석촌호수로18길 7",
    "lat": 37.5063589827638,
    "lng": 127.101202293177,
    "area": "송파",
    "kakao_url": "http://place.map.kakao.com/518699361",
    "naver_url": "",
    "source": "kakao"
  },
  {
    "name": "부부횟집 서울점",
    "category": "음식점 > 한식 > 해물,생선 > 회",
    "phone": "02-415-8881",
    "address": "서울 송파구 오금로18길 4",
    "lat": 37.5104887530635,
    "lng": 127.1107256875,
    "area": "송파",
    "kakao_url": "http://place.map.kakao.com/7899295",
    "naver_url": "",
    "source": "kakao"
  },
  {
    "name": "문어세상해천탕 잠실본점",
    "category": "음식점 > 한식 > 해물,생선",
    "phone": "02-425-0995",
    "address": "서울 송파구 오금로 169",
    "lat": 37.5099058184777,
    "lng": 127.11355696329,
    "area": "송파",
    "kakao_url": "http://place.map.kakao.com/27365990",
    "naver_url": "",
    "source": "kakao"
  },
  {
    "name": "가락골마산아구찜",
    "category": "음식점 > 한식 > 해물,생선 > 아구",
    "phone": "02-409-6665",
    "address": "서울 송파구 송이로19길 3",
    "lat": 37.49746741773028,
    "lng": 127.12172553347362,
    "area": "송파",
    "kakao_url": "http://place.map.kakao.com/16380386",
    "naver_url": "",
    "source": "kakao"
  },
  {
    "name": "육화식당",
    "category": "음식점 > 한식 > 육류,고기 > 삼겹살",
    "phone": "02-424-6882",
    "address": "서울 송파구 올림픽로32길 29",
    "lat": 37.5135926508284,
    "lng": 127.109825392284,
    "area": "송파",
    "kakao_url": "http://place.map.kakao.com/1201642510",
    "naver_url": "",
    "source": "kakao"
  },
  {
    "name": "달빛오징어광어 본점",
    "category": "음식점 > 한식 > 해물,생선 > 회",
    "phone": "02-6338-2111",
    "address": "서울 송파구 백제고분로39길 31",
    "lat": 37.5068949629715,
    "lng": 127.103418645224,
    "area": "송파",
    "kakao_url": "http://place.map.kakao.com/27407250",
    "naver_url": "",
    "source": "kakao"
  },
  {
    "name": "사사노하",
    "category": "음식점 > 술집 > 일본식주점",
    "phone": "",
    "address": "서울 송파구 백제고분로42길 4-13",
    "lat": 37.5055133518925,
    "lng": 127.108845437895,
    "area": "송파",
    "kakao_url": "http://place.map.kakao.com/2127972171",
    "naver_url": "",
    "source": "kakao"
  },
  {
    "name": "몽중헌 방이점",
    "category": "음식점 > 중식 > 중국요리",
    "phone": "02-2202-8004",
    "address": "서울 송파구 위례성대로 10",
    "lat": 37.5167390635234,
    "lng": 127.113522070938,
    "area": "송파",
    "kakao_url": "http://place.map.kakao.com/19452961",
    "naver_url": "",
    "source": "kakao"
  },
  {
    "name": "빈티지1981",
    "category": "음식점 > 술집 > 와인바",
    "phone": "0502-5551-1751",
    "address": "서울 송파구 석촌호수로 194",
    "lat": 37.5062431710459,
    "lng": 127.0985771092,
    "area": "송파",
    "kakao_url": "http://place.map.kakao.com/13316998",
    "naver_url": "",
    "source": "kakao"
  },
  {
    "name": "박복순쭈꾸미",
    "category": "음식점 > 한식 > 해물,생선",
    "phone": "070-7576-3526",
    "address": "서울 송파구 백제고분로41길 36-6",
    "lat": 37.50893931227178,
    "lng": 127.1064944756299,
    "area": "송파",
    "kakao_url": "http://place.map.kakao.com/1287097840",
    "naver_url": "",
    "source": "kakao"
  },
  {
    "name": "스시랑랑",
    "category": "음식점 > 일식 > 초밥,롤",
    "phone": "02-2203-8588",
    "address": "서울 송파구 오금로 144",
    "lat": 37.51069611721689,
    "lng": 127.1105834806316,
    "area": "송파",
    "kakao_url": "http://place.map.kakao.com/18856145",
    "naver_url": "",
    "source": "kakao"
  },
  {
    "name": "진성한우곱창",
    "category": "음식점 > 한식 > 육류,고기 > 곱창,막창",
    "phone": "02-402-3439",
    "address": "서울 송파구 송파대로28길 27",
    "lat": 37.4955042534033,
    "lng": 127.120722695357,
    "area": "송파",
    "kakao_url": "http://place.map.kakao.com/13291531",
    "naver_url": "",
    "source": "kakao"
  },
  {
    "name": "풍천장어마을 즉석숯불구이",
    "category": "음식점 > 한식 > 해물,생선 > 장어",
    "phone": "02-402-0092",
    "address": "서울 송파구 송파대로 54",
    "lat": 37.4752165013326,
    "lng": 127.128192198899,
    "area": "송파",
    "kakao_url": "http://place.map.kakao.com/27237586",
    "naver_url": "",
    "source": "kakao"
  },
  {
    "name": "내고향횡성 한우정육점식당",
    "category": "음식점 > 한식 > 육류,고기",
    "phone": "",
    "address": "서울 송파구 오금로 113",
    "lat": 37.5120403853752,
    "lng": 127.108673943229,
    "area": "송파",
    "kakao_url": "http://place.map.kakao.com/8162593",
    "naver_url": "",
    "source": "kakao"
  },
  {
    "name": "황산냉면",
    "category": "음식점 > 한식 > 냉면",
    "phone": "02-3431-2262",
    "address": "서울 송파구 가락로 257",
    "lat": 37.51093889571969,
    "lng": 127.11852388451224,
    "area": "송파",
    "kakao_url": "http://place.map.kakao.com/17079277",
    "naver_url": "",
    "source": "kakao"
  },
  {
    "name": "방이샤브샤브칼국수 방이본점",
    "category": "음식점 > 샤브샤브",
    "phone": "02-423-3450",
    "address": "서울 송파구 양재대로71길 2-27",
    "lat": 37.5113174858362,
    "lng": 127.12703010148964,
    "area": "송파",
    "kakao_url": "http://place.map.kakao.com/16790592",
    "naver_url": "",
    "source": "kakao"
  },
  {
    "name": "진대감 방이점",
    "category": "음식점 > 한식 > 육류,고기",
    "phone": "02-416-2472",
    "address": "서울 송파구 오금로13길 6",
    "lat": 37.5130929518416,
    "lng": 127.108462823851,
    "area": "송파",
    "kakao_url": "http://place.map.kakao.com/25010943",
    "naver_url": "",
    "source": "kakao"
  },
  {
    "name": "팡즈",
    "category": "음식점 > 중식",
    "phone": "02-2042-4687",
    "address": "서울 송파구 백제고분로41길 27",
    "lat": 37.5082940694739,
    "lng": 127.106631543519,
    "area": "송파",
    "kakao_url": "http://place.map.kakao.com/323133307",
    "naver_url": "",
    "source": "kakao"
  },
  {
    "name": "방이동초밥 스시미노루",
    "category": "음식점 > 일식 > 초밥,롤",
    "phone": "02-418-7711",
    "address": "서울 송파구 백제고분로 508",
    "lat": 37.515259308750146,
    "lng": 127.1156961155647,
    "area": "송파",
    "kakao_url": "http://place.map.kakao.com/10541961",
    "naver_url": "",
    "source": "kakao"
  },
  {
    "name": "화포식당 가락점",
    "category": "음식점 > 한식 > 육류,고기 > 삼겹살",
    "phone": "0507-1325-5775",
    "address": "서울 송파구 송파대로30길 11",
    "lat": 37.4947531166639,
    "lng": 127.118645307294,
    "area": "송파",
    "kakao_url": "http://place.map.kakao.com/26579630",
    "naver_url": "",
    "source": "kakao"
  },
  {
    "name": "그리지하우스",
    "category": "음식점 > 양식 > 스테이크,립",
    "phone": "02-6013-8169",
    "address": "서울 송파구 백제고분로41길 43-17",
    "lat": 37.5087280572927,
    "lng": 127.104950323151,
    "area": "송파",
    "kakao_url": "http://place.map.kakao.com/27184517",
    "naver_url": "",
    "source": "kakao"
  },
  {
    "name": "푼양이 부대찌개&김치찌개 가락본점",
    "category": "음식점 > 한식 > 찌개,전골",
    "phone": "02-6498-1282",
    "address": "서울 송파구 송파대로30길 41-5",
    "lat": 37.4963659636389,
    "lng": 127.12126236265792,
    "area": "송파",
    "kakao_url": "http://place.map.kakao.com/200667608",
    "naver_url": "",
    "source": "kakao"
  },
  {
    "name": "교차점",
    "category": "음식점 > 일식 > 돈까스,우동",
    "phone": "070-8691-2979",
    "address": "서울 송파구 송파대로 451",
    "lat": 37.50654712519965,
    "lng": 127.10551276715434,
    "area": "송파",
    "kakao_url": "http://place.map.kakao.com/495929777",
    "naver_url": "",
    "source": "kakao"
  },
  {
    "name": "러반로제레스토랑 석촌호수점",
    "category": "음식점 > 양식",
    "phone": "070-7778-9471",
    "address": "서울 송파구 석촌호수로 274",
    "lat": 37.51022260240741,
    "lng": 127.10620561896941,
    "area": "송파",
    "kakao_url": "http://place.map.kakao.com/889654708",
    "naver_url": "",
    "source": "kakao"
  },
  {
    "name": "석촌호민물장어",
    "category": "음식점 > 한식 > 해물,생선 > 장어",
    "phone": "02-422-6050",
    "address": "서울 송파구 석촌호수로 290",
    "lat": 37.5111909110484,
    "lng": 127.107500928778,
    "area": "송파",
    "kakao_url": "http://place.map.kakao.com/18323864",
    "naver_url": "",
    "source": "kakao"
  },
  {
    "name": "골목떡볶이",
    "category": "음식점 > 분식 > 떡볶이",
    "phone": "02-3402-3452",
    "address": "서울 송파구 문정로1길 33",
    "lat": 37.4890285612452,
    "lng": 127.123489346447,
    "area": "송파",
    "kakao_url": "http://place.map.kakao.com/11831381",
    "naver_url": "",
    "source": "both"
  },
  {
    "name": "케슬리 성수본점",
    "category": "음식점 > 패스트푸드 > 샌드위치",
    "phone": "010-2669-1677",
    "address": "서울 성동구 상원6길 3",
    "lat": 37.5484898375982,
    "lng": 127.04862041223988,
    "area": "뚝섬",
    "kakao_url": "http://place.map.kakao.com/1009113250",
    "naver_url": "",
    "source": "kakao"
  },
  {
    "name": "성수동간판없는집",
    "category": "음식점 > 한식 > 육류,고기 > 닭요리",
    "phone": "010-559-2634",
    "address": "서울 성동구 성수일로 59-1",
    "lat": 37.54590338799391,
    "lng": 127.05001624500181,
    "area": "뚝섬",
    "kakao_url": "http://place.map.kakao.com/15225276",
    "naver_url": "",
    "source": "kakao"
  },
  {
    "name": "눈꽃돼지",
    "category": "음식점 > 한식 > 육류,고기",
    "phone": "02-464-2072",
    "address": "서울 성동구 왕십리로8길 17-4",
    "lat": 37.5462254951127,
    "lng": 127.046716731945,
    "area": "뚝섬",
    "kakao_url": "http://place.map.kakao.com/1795368894",
    "naver_url": "",
    "source": "kakao"
  },
  {
    "name": "차이나플레인 서울숲점",
    "category": "음식점 > 중식 > 중국요리",
    "phone": "02-2088-8493",
    "address": "서울 성동구 뚝섬로1길 25",
    "lat": 37.5436451963365,
    "lng": 127.046303235769,
    "area": "뚝섬",
    "kakao_url": "http://place.map.kakao.com/1663735697",
    "naver_url": "",
    "source": "kakao"
  },
  {
    "name": "밀도 성수본점",
    "category": "음식점 > 간식 > 제과,베이커리",
    "phone": "02-497-5050",
    "address": "서울 성동구 왕십리로 96",
    "lat": 37.54623882183776,
    "lng": 127.04487903117139,
    "area": "뚝섬",
    "kakao_url": "http://place.map.kakao.com/27300932",
    "naver_url": "",
    "source": "kakao"
  },
  {
    "name": "세븐버거스 어 위크",
    "category": "음식점 > 양식 > 햄버거",
    "phone": "070-4010-8911",
    "address": "서울 성동구 왕십리로10길 5-6",
    "lat": 37.54714862371503,
    "lng": 127.04542048524719,
    "area": "뚝섬",
    "kakao_url": "http://place.map.kakao.com/2146458550",
    "naver_url": "",
    "source": "kakao"
  },
  {
    "name": "화로양미",
    "category": "음식점 > 한식 > 육류,고기 > 갈비",
    "phone": "070-7818-8886",
    "address": "서울 성동구 상원4길 9",
    "lat": 37.5472946732279,
    "lng": 127.049677691514,
    "area": "뚝섬",
    "kakao_url": "http://place.map.kakao.com/918469508",
    "naver_url": "",
    "source": "kakao"
  },
  {
    "name": "홍화돈",
    "category": "음식점 > 한식 > 육류,고기 > 삼겹살",
    "phone": "02-464-7988",
    "address": "서울 성동구 왕십리로4길 23-1",
    "lat": 37.5469752705161,
    "lng": 127.046350559703,
    "area": "뚝섬",
    "kakao_url": "http://place.map.kakao.com/261652555",
    "naver_url": "",
    "source": "kakao"
  },
  {
    "name": "짬뽕위에더짬뽕 본점",
    "category": "음식점 > 중식 > 중국요리",
    "phone": "02-6010-3323",
    "address": "서울 성동구 서울숲6길 21",
    "lat": 37.5474086604338,
    "lng": 127.0439699165,
    "area": "뚝섬",
    "kakao_url": "http://place.map.kakao.com/1500769154",
    "naver_url": "",
    "source": "kakao"
  },
  {
    "name": "할머니의레시피",
    "category": "음식점 > 한식",
    "phone": "02-467-5101",
    "address": "서울 성동구 서울숲2길 44-12",
    "lat": 37.54617281557421,
    "lng": 127.04308654785041,
    "area": "뚝섬",
    "kakao_url": "http://place.map.kakao.com/27373628",
    "naver_url": "",
    "source": "kakao"
  },
  {
    "name": "심퍼티쿠시 성수점",
    "category": "음식점 > 양식",
    "phone": "070-4101-1408",
    "address": "서울 성동구 아차산로 6",
    "lat": 37.5476938415342,
    "lng": 127.045124332604,
    "area": "뚝섬",
    "kakao_url": "http://place.map.kakao.com/623393395",
    "naver_url": "",
    "source": "kakao"
  },
  {
    "name": "유메이규",
    "category": "음식점 > 일식",
    "phone": "02-469-0527",
    "address": "서울 성동구 왕십리로4길 13-1",
    "lat": 37.54605823941983,
    "lng": 127.0458747234671,
    "area": "뚝섬",
    "kakao_url": "http://place.map.kakao.com/340271612",
    "naver_url": "",
    "source": "kakao"
  },
  {
    "name": "춘천닭갈비",
    "category": "음식점 > 한식 > 육류,고기 > 닭요리",
    "phone": "02-465-6642",
    "address": "서울 성동구 왕십리로8길 8",
    "lat": 37.5463593113885,
    "lng": 127.045517323601,
    "area": "뚝섬",
    "kakao_url": "http://place.map.kakao.com/9517312",
    "naver_url": "",
    "source": "kakao"
  },
  {
    "name": "스시이치바",
    "category": "음식점 > 일식 > 초밥,롤",
    "phone": "02-6338-2318",
    "address": "서울 성동구 왕십리로14길 8",
    "lat": 37.5493941410678,
    "lng": 127.044822077558,
    "area": "뚝섬",
    "kakao_url": "http://place.map.kakao.com/1412303854",
    "naver_url": "",
    "source": "kakao"
  },
  {
    "name": "정선부뚜막",
    "category": "음식점 > 한식",
    "phone": "02-499-8253",
    "address": "서울 성동구 서울숲6길 14",
    "lat": 37.547473884115,
    "lng": 127.043014873485,
    "area": "뚝섬",
    "kakao_url": "http://place.map.kakao.com/1854321980",
    "naver_url": "",
    "source": "kakao"
  },
  {
    "name": "고공 성수본점",
    "category": "음식점 > 한식 > 육류,고기",
    "phone": "02-6368-5050",
    "address": "서울 성동구 왕십리로8길 10",
    "lat": 37.5462726859187,
    "lng": 127.045852222985,
    "area": "뚝섬",
    "kakao_url": "http://place.map.kakao.com/206136106",
    "naver_url": "",
    "source": "kakao"
  },
  {
    "name": "호호식당 성수동점",
    "category": "음식점 > 일식",
    "phone": "02-498-2384",
    "address": "서울 성동구 서울숲4길 25",
    "lat": 37.54717624234943,
    "lng": 127.04386340878831,
    "area": "뚝섬",
    "kakao_url": "http://place.map.kakao.com/1054118175",
    "naver_url": "",
    "source": "kakao"
  },
  {
    "name": "대성갈비",
    "category": "음식점 > 한식 > 육류,고기 > 갈비",
    "phone": "02-464-3012",
    "address": "서울 성동구 상원1길 26",
    "lat": 37.546194169989704,
    "lng": 127.04843220827088,
    "area": "뚝섬",
    "kakao_url": "http://place.map.kakao.com/12055448",
    "naver_url": "",
    "source": "both"
  },
  {
    "name": "태성골뱅이 성수점",
    "category": "음식점 > 술집 > 호프,요리주점",
    "phone": "02-6469-7100",
    "address": "서울 성동구 왕십리로10길 8",
    "lat": 37.5468602649212,
    "lng": 127.045522154615,
    "area": "뚝섬",
    "kakao_url": "http://place.map.kakao.com/2131717888",
    "naver_url": "",
    "source": "kakao"
  },
  {
    "name": "그린한식뷔페",
    "category": "음식점 > 뷔페 > 한식뷔페",
    "phone": "",
    "address": "서울 성동구 상원1길 25",
    "lat": 37.545850173250024,
    "lng": 127.04797935036622,
    "area": "뚝섬",
    "kakao_url": "http://place.map.kakao.com/506446738",
    "naver_url": "",
    "source": "kakao"
  },
  {
    "name": "소바마에",
    "category": "음식점 > 일식",
    "phone": "0507-1431-6226",
    "address": "서울 성동구 왕십리로4길 26-20",
    "lat": 37.5468236432896,
    "lng": 127.04700679562,
    "area": "뚝섬",
    "kakao_url": "http://place.map.kakao.com/395031954",
    "naver_url": "",
    "source": "kakao"
  },
  {
    "name": "강남면옥 성수점",
    "category": "음식점 > 한식 > 냉면",
    "phone": "02-6968-0800",
    "address": "서울 성동구 성수일로 77",
    "lat": 37.5476654711782,
    "lng": 127.050651127189,
    "area": "뚝섬",
    "kakao_url": "http://place.map.kakao.com/20304491",
    "naver_url": "",
    "source": "kakao"
  },
  {
    "name": "사흘카레",
    "category": "음식점 > 아시아음식 > 인도음식",
    "phone": "070-4045-0105",
    "address": "서울 성동구 상원길 38-1",
    "lat": 37.547390584484276,
    "lng": 127.04870456913237,
    "area": "뚝섬",
    "kakao_url": "http://place.map.kakao.com/27512325",
    "naver_url": "",
    "source": "kakao"
  },
  {
    "name": "호앙비엣 성수점",
    "category": "음식점 > 아시아음식 > 동남아음식 > 베트남음식",
    "phone": "0507-1348-8486",
    "address": "서울 성동구 왕십리로4길 10-3",
    "lat": 37.5457428546238,
    "lng": 127.045965057142,
    "area": "뚝섬",
    "kakao_url": "http://place.map.kakao.com/1075267853",
    "naver_url": "",
    "source": "kakao"
  },
  {
    "name": "뚝섬돈가",
    "category": "음식점 > 한식 > 육류,고기",
    "phone": "02-467-0095",
    "address": "서울 성동구 상원길 49",
    "lat": 37.548492737639236,
    "lng": 127.04813947208363,
    "area": "뚝섬",
    "kakao_url": "http://place.map.kakao.com/1414387635",
    "naver_url": "",
    "source": "kakao"
  },
  {
    "name": "우웨이탕",
    "category": "음식점 > 중식",
    "phone": "070-7807-2888",
    "address": "서울 성동구 상원1길 11-1",
    "lat": 37.5449920697748,
    "lng": 127.048838797725,
    "area": "뚝섬",
    "kakao_url": "http://place.map.kakao.com/1687460128",
    "naver_url": "",
    "source": "both"
  },
  {
    "name": "성수라",
    "category": "음식점 > 한식",
    "phone": "02-2088-6767",
    "address": "서울 성동구 왕십리로4길 13-1",
    "lat": 37.5460762506011,
    "lng": 127.045897366341,
    "area": "뚝섬",
    "kakao_url": "http://place.map.kakao.com/1709948682",
    "naver_url": "",
    "source": "kakao"
  },
  {
    "name": "멘야코노하 성수",
    "category": "음식점 > 일식 > 일본식라면",
    "phone": "070-7723-3159",
    "address": "서울 성동구 왕십리로4길 10-1",
    "lat": 37.545643775564194,
    "lng": 127.04588578533941,
    "area": "뚝섬",
    "kakao_url": "http://place.map.kakao.com/654290866",
    "naver_url": "",
    "source": "kakao"
  },
  {
    "name": "요쇼쿠 성수",
    "category": "음식점 > 일식",
    "phone": "02-6085-0303",
    "address": "서울 성동구 서울숲4길 26-10",
    "lat": 37.5469123882825,
    "lng": 127.043488693107,
    "area": "뚝섬",
    "kakao_url": "http://place.map.kakao.com/523179315",
    "naver_url": "",
    "source": "kakao"
  },
  {
    "name": "아오미",
    "category": "음식점 > 일식 > 일식집",
    "phone": "",
    "address": "서울 성동구 왕십리로4길 20",
    "lat": 37.5464418739627,
    "lng": 127.046363808609,
    "area": "뚝섬",
    "kakao_url": "http://place.map.kakao.com/817789257",
    "naver_url": "",
    "source": "kakao"
  },
  {
    "name": "야키토리나루토 성수",
    "category": "음식점 > 술집 > 일본식주점",
    "phone": "02-464-6835",
    "address": "서울 성동구 왕십리로14길 12",
    "lat": 37.5490696838833,
    "lng": 127.045078764886,
    "area": "뚝섬",
    "kakao_url": "http://place.map.kakao.com/1066458861",
    "naver_url": "",
    "source": "kakao"
  },
  {
    "name": "양복점 성수점",
    "category": "음식점 > 중식 > 양꼬치",
    "phone": "0507-1306-5509",
    "address": "서울 성동구 왕십리로4길 28-2",
    "lat": 37.5471175258497,
    "lng": 127.04661091752,
    "area": "뚝섬",
    "kakao_url": "http://place.map.kakao.com/928545593",
    "naver_url": "https://app.catchtable.co.kr/ct/shop/mabong_sungsu",
    "source": "both"
  },
  {
    "name": "바다화원",
    "category": "음식점 > 한식 > 해물,생선",
    "phone": "02-465-9663",
    "address": "서울 성동구 상원4길 6-1",
    "lat": 37.5471147101957,
    "lng": 127.049111768339,
    "area": "뚝섬",
    "kakao_url": "http://place.map.kakao.com/1247494827",
    "naver_url": "",
    "source": "kakao"
  },
  {
    "name": "마블정",
    "category": "음식점 > 한식 > 육류,고기",
    "phone": "02-499-1345",
    "address": "서울 성동구 성수일로 57",
    "lat": 37.545723279104315,
    "lng": 127.04980112324127,
    "area": "뚝섬",
    "kakao_url": "http://place.map.kakao.com/1833721647",
    "naver_url": "",
    "source": "kakao"
  },
  {
    "name": "주도",
    "category": "음식점 > 한식",
    "phone": "0502-5552-1119",
    "address": "서울 성동구 상원1길 35-22",
    "lat": 37.54615237445085,
    "lng": 127.04706861172315,
    "area": "뚝섬",
    "kakao_url": "http://place.map.kakao.com/1870322922",
    "naver_url": "",
    "source": "kakao"
  },
  {
    "name": "희정보감족",
    "category": "음식점 > 한식 > 육류,고기 > 족발,보쌈",
    "phone": "02-6085-6452",
    "address": "서울 성동구 상원2길 1",
    "lat": 37.5460478693288,
    "lng": 127.04925138577,
    "area": "뚝섬",
    "kakao_url": "http://place.map.kakao.com/513183578",
    "naver_url": "",
    "source": "kakao"
  },
  {
    "name": "스시오오모토",
    "category": "음식점 > 일식 > 초밥,롤",
    "phone": "010-6563-6906",
    "address": "서울 성동구 상원1길 39-1",
    "lat": 37.5469768805097,
    "lng": 127.046837151031,
    "area": "뚝섬",
    "kakao_url": "http://place.map.kakao.com/2055026654",
    "naver_url": "",
    "source": "kakao"
  },
  {
    "name": "타코스퀘어",
    "category": "음식점 > 양식 > 멕시칸,브라질",
    "phone": "070-8830-7979",
    "address": "서울 성동구 상원1길 35-22",
    "lat": 37.546164085179306,
    "lng": 127.04707427705193,
    "area": "뚝섬",
    "kakao_url": "http://place.map.kakao.com/2001208021",
    "naver_url": "",
    "source": "kakao"
  },
  {
    "name": "오뜨로부엔디아",
    "category": "음식점 > 양식 > 이탈리안",
    "phone": "02-6950-0999",
    "address": "서울 성동구 뚝섬로1길 31",
    "lat": 37.54391631213051,
    "lng": 127.04651953124659,
    "area": "뚝섬",
    "kakao_url": "http://place.map.kakao.com/935320659",
    "naver_url": "",
    "source": "kakao"
  },
  {
    "name": "서후와규 뚝섬본점",
    "category": "음식점 > 한식 > 육류,고기",
    "phone": "02-499-2543",
    "address": "서울 성동구 상원2길 5-11",
    "lat": 37.54622436809709,
    "lng": 127.04948347866714,
    "area": "뚝섬",
    "kakao_url": "http://place.map.kakao.com/1328136735",
    "naver_url": "",
    "source": "kakao"
  },
  {
    "name": "이응",
    "category": "음식점 > 한식",
    "phone": "010-4693-0702",
    "address": "서울 성동구 왕십리로6길 16",
    "lat": 37.5457427144527,
    "lng": 127.046323770062,
    "area": "뚝섬",
    "kakao_url": "http://place.map.kakao.com/654942149",
    "naver_url": "",
    "source": "kakao"
  },
  {
    "name": "서울숲누룽지통닭구이",
    "category": "음식점 > 치킨",
    "phone": "02-462-9920",
    "address": "서울 성동구 왕십리로5길 10",
    "lat": 37.54695980050319,
    "lng": 127.04440418923618,
    "area": "뚝섬",
    "kakao_url": "http://place.map.kakao.com/27417406",
    "naver_url": "",
    "source": "kakao"
  },
  {
    "name": "레츠잇치킨",
    "category": "음식점 > 치킨",
    "phone": "070-4106-8088",
    "address": "서울 성동구 왕십리로4길 12",
    "lat": 37.5458617794267,
    "lng": 127.04598323558,
    "area": "뚝섬",
    "kakao_url": "http://place.map.kakao.com/1797543049",
    "naver_url": "",
    "source": "kakao"
  },
  {
    "name": "이태리국시 성수",
    "category": "음식점 > 양식",
    "phone": "02-464-0950",
    "address": "서울 성동구 왕십리로8길 18-1",
    "lat": 37.5460579066554,
    "lng": 127.046723416911,
    "area": "뚝섬",
    "kakao_url": "http://place.map.kakao.com/780776735",
    "naver_url": "https://www.instagram.com/italyguksi",
    "source": "both"
  },
  {
    "name": "성수아구찜탕",
    "category": "음식점 > 한식 > 해물,생선 > 아구",
    "phone": "02-465-4346",
    "address": "서울 성동구 왕십리로4길 10",
    "lat": 37.54557710780354,
    "lng": 127.0458699022966,
    "area": "뚝섬",
    "kakao_url": "http://place.map.kakao.com/16471967",
    "naver_url": "",
    "source": "kakao"
  },
  {
    "name": "스시오 건대점",
    "category": "음식점 > 일식 > 초밥,롤",
    "phone": "0507-1429-5955",
    "address": "서울 광진구 능동로 141",
    "lat": 37.543401658387,
    "lng": 127.072016457304,
    "area": "건대",
    "kakao_url": "http://place.map.kakao.com/18542711",
    "naver_url": "",
    "source": "kakao"
  },
  {
    "name": "화양시장할머니순대국",
    "category": "음식점 > 한식 > 순대",
    "phone": "02-457-3989",
    "address": "서울 광진구 아차산로 293",
    "lat": 37.53867093408827,
    "lng": 127.07565979799207,
    "area": "건대",
    "kakao_url": "http://place.map.kakao.com/12807556",
    "naver_url": "",
    "source": "kakao"
  },
  {
    "name": "르빠니에블루 건대점",
    "category": "음식점 > 양식 > 프랑스음식",
    "phone": "02-468-1358",
    "address": "서울 광진구 능동로 149-1",
    "lat": 37.54423846895151,
    "lng": 127.07237257331956,
    "area": "건대",
    "kakao_url": "http://place.map.kakao.com/12353328",
    "naver_url": "",
    "source": "kakao"
  },
  {
    "name": "고씨네 건국대점",
    "category": "음식점 > 일식",
    "phone": "02-6465-4813",
    "address": "서울 광진구 능동로13길 6",
    "lat": 37.54253163308,
    "lng": 127.071456640616,
    "area": "건대",
    "kakao_url": "http://place.map.kakao.com/413860309",
    "naver_url": "",
    "source": "kakao"
  },
  {
    "name": "통큰감자탕 건대본점",
    "category": "음식점 > 한식 > 감자탕",
    "phone": "02-456-8279",
    "address": "서울 광진구 광나루로26길 16",
    "lat": 37.54546730100783,
    "lng": 127.0768570909288,
    "area": "건대",
    "kakao_url": "http://place.map.kakao.com/1994479496",
    "naver_url": "",
    "source": "kakao"
  },
  {
    "name": "릴리베이커리",
    "category": "음식점 > 간식 > 제과,베이커리",
    "phone": "02-469-0888",
    "address": "서울 광진구 능동로13길 21",
    "lat": 37.5429627560406,
    "lng": 127.070717021905,
    "area": "건대",
    "kakao_url": "http://place.map.kakao.com/39192828",
    "naver_url": "",
    "source": "kakao"
  },
  {
    "name": "W1",
    "category": "음식점 > 술집 > 호프,요리주점",
    "phone": "",
    "address": "서울 광진구 동일로22길 117-11",
    "lat": 37.541168009367645,
    "lng": 127.0706429096526,
    "area": "건대",
    "kakao_url": "http://place.map.kakao.com/21326892",
    "naver_url": "",
    "source": "kakao"
  },
  {
    "name": "샘터골 건대본점",
    "category": "음식점 > 한식 > 육류,고기 > 닭요리",
    "phone": "02-453-9095",
    "address": "서울 광진구 능동로16길 55",
    "lat": 37.5454065605978,
    "lng": 127.076042289876,
    "area": "건대",
    "kakao_url": "http://place.map.kakao.com/15794086",
    "naver_url": "",
    "source": "kakao"
  },
  {
    "name": "부리또삐아 건국대점",
    "category": "음식점 > 양식 > 멕시칸,브라질",
    "phone": "02-447-0018",
    "address": "서울 광진구 능동로16길 51",
    "lat": 37.5453093255875,
    "lng": 127.075929033104,
    "area": "건대",
    "kakao_url": "http://place.map.kakao.com/1382260672",
    "naver_url": "",
    "source": "kakao"
  },
  {
    "name": "송림식당",
    "category": "음식점 > 기사식당",
    "phone": "02-457-5473",
    "address": "서울 광진구 자양번영로 79",
    "lat": 37.5366882542409,
    "lng": 127.076404551637,
    "area": "건대",
    "kakao_url": "http://place.map.kakao.com/7963415",
    "naver_url": "",
    "source": "kakao"
  },
  {
    "name": "가츠시 건대점",
    "category": "음식점 > 일식 > 돈까스,우동",
    "phone": "02-444-2355",
    "address": "서울 광진구 광나루로 418",
    "lat": 37.54640142787438,
    "lng": 127.07578642802504,
    "area": "건대",
    "kakao_url": "http://place.map.kakao.com/1277643944",
    "naver_url": "",
    "source": "kakao"
  },
  {
    "name": "롯데리아 건대스타시티점",
    "category": "음식점 > 패스트푸드 > 롯데리아",
    "phone": "02-2024-1466",
    "address": "서울 광진구 아차산로 272",
    "lat": 37.53850319884627,
    "lng": 127.07303460140031,
    "area": "건대",
    "kakao_url": "http://place.map.kakao.com/10354562",
    "naver_url": "https://www.lotteria.com/",
    "source": "both"
  },
  {
    "name": "하루 건대후문점",
    "category": "음식점 > 일식 > 돈까스,우동",
    "phone": "",
    "address": "서울 광진구 능동로16길 60",
    "lat": 37.5452406638136,
    "lng": 127.076217516114,
    "area": "건대",
    "kakao_url": "http://place.map.kakao.com/314938811",
    "naver_url": "",
    "source": "kakao"
  },
  {
    "name": "옛맛서울불고기 건대점",
    "category": "음식점 > 한식 > 육류,고기 > 불고기,두루치기",
    "phone": "02-453-8889",
    "address": "서울 광진구 아차산로 305",
    "lat": 37.538396243964,
    "lng": 127.076876988165,
    "area": "건대",
    "kakao_url": "http://place.map.kakao.com/17167851",
    "naver_url": "",
    "source": "kakao"
  },
  {
    "name": "케밥도밥이다",
    "category": "음식점 > 아시아음식 > 튀르키예음식",
    "phone": "010-8405-6606",
    "address": "서울 광진구 아차산로39길 38-1",
    "lat": 37.5389917507245,
    "lng": 127.075565077443,
    "area": "건대",
    "kakao_url": "http://place.map.kakao.com/1610245112",
    "naver_url": "",
    "source": "kakao"
  },
  {
    "name": "포항막회물회",
    "category": "음식점 > 한식 > 해물,생선 > 회",
    "phone": "02-469-1386",
    "address": "서울 광진구 아차산로31길 28",
    "lat": 37.54214874879789,
    "lng": 127.06988344527153,
    "area": "건대",
    "kakao_url": "http://place.map.kakao.com/1150679353",
    "naver_url": "",
    "source": "kakao"
  },
  {
    "name": "시원식당",
    "category": "음식점 > 한식",
    "phone": "02-2201-3523",
    "address": "서울 광진구 자양번영로12길 5-5",
    "lat": 37.537206741583056,
    "lng": 127.07715636848788,
    "area": "건대",
    "kakao_url": "http://place.map.kakao.com/15556779",
    "naver_url": "",
    "source": "kakao"
  },
  {
    "name": "건대사시미",
    "category": "음식점 > 한식 > 해물,생선 > 회",
    "phone": "02-465-3222",
    "address": "서울 광진구 아차산로33길 23",
    "lat": 37.5413880961375,
    "lng": 127.070235769806,
    "area": "건대",
    "kakao_url": "http://place.map.kakao.com/15849177",
    "naver_url": "",
    "source": "kakao"
  },
  {
    "name": "화원식당",
    "category": "음식점 > 중식 > 중국요리",
    "phone": "02-454-1888",
    "address": "서울 광진구 능동로16길 56-6",
    "lat": 37.5450497652263,
    "lng": 127.076041927462,
    "area": "건대",
    "kakao_url": "http://place.map.kakao.com/21232416",
    "naver_url": "",
    "source": "kakao"
  },
  {
    "name": "the개미 건대본점",
    "category": "음식점 > 한식 > 찌개,전골",
    "phone": "02-452-4015",
    "address": "서울 광진구 능동로16길 60",
    "lat": 37.545253195920424,
    "lng": 127.07634426574296,
    "area": "건대",
    "kakao_url": "http://place.map.kakao.com/15617396",
    "naver_url": "",
    "source": "kakao"
  },
  {
    "name": "오에이오서울",
    "category": "음식점 > 간식 > 제과,베이커리",
    "phone": "010-2559-0585",
    "address": "서울 광진구 아차산로38길 7",
    "lat": 37.5381397666251,
    "lng": 127.074997350359,
    "area": "건대",
    "kakao_url": "http://place.map.kakao.com/1345997289",
    "naver_url": "",
    "source": "kakao"
  },
  {
    "name": "원갈비",
    "category": "음식점 > 한식 > 육류,고기 > 갈비",
    "phone": "02-456-8914",
    "address": "서울 광진구 광나루로 410",
    "lat": 37.5465604755073,
    "lng": 127.075047654915,
    "area": "건대",
    "kakao_url": "http://place.map.kakao.com/26494200",
    "naver_url": "",
    "source": "kakao"
  },
  {
    "name": "타코벨 건대스타시티점",
    "category": "음식점 > 양식 > 멕시칸,브라질",
    "phone": "02-447-4540",
    "address": "서울 광진구 아차산로 272",
    "lat": 37.53862933737582,
    "lng": 127.07303698738643,
    "area": "건대",
    "kakao_url": "http://place.map.kakao.com/1714194607",
    "naver_url": "",
    "source": "kakao"
  },
  {
    "name": "코코이찌방야 건대스타시티점",
    "category": "음식점 > 퓨전요리 > 코코이찌방야",
    "phone": "02-2024-8855",
    "address": "서울 광진구 아차산로 272",
    "lat": 37.538557284001136,
    "lng": 127.07299392094254,
    "area": "건대",
    "kakao_url": "http://place.map.kakao.com/27055762",
    "naver_url": "",
    "source": "kakao"
  },
  {
    "name": "후토",
    "category": "음식점 > 술집 > 일본식주점",
    "phone": "02-465-8590",
    "address": "서울 광진구 동일로24길 98",
    "lat": 37.5423359282837,
    "lng": 127.070268341933,
    "area": "건대",
    "kakao_url": "http://place.map.kakao.com/1773072813",
    "naver_url": "",
    "source": "kakao"
  },
  {
    "name": "수퍼슬라이더스",
    "category": "음식점 > 양식 > 햄버거",
    "phone": "02-6397-7186",
    "address": "서울 광진구 능동로13길 50",
    "lat": 37.5440912809028,
    "lng": 127.069921468449,
    "area": "건대",
    "kakao_url": "http://place.map.kakao.com/1093085311",
    "naver_url": "",
    "source": "kakao"
  },
  {
    "name": "카레시대",
    "category": "음식점 > 일식",
    "phone": "02-6460-0090",
    "address": "서울 광진구 아차산로41길 44",
    "lat": 37.5386373658957,
    "lng": 127.077406767985,
    "area": "건대",
    "kakao_url": "http://place.map.kakao.com/1815380993",
    "naver_url": "",
    "source": "kakao"
  },
  {
    "name": "우마이도 건대점",
    "category": "음식점 > 일식 > 일본식라면",
    "phone": "02-467-8788",
    "address": "서울 광진구 능동로 135-2",
    "lat": 37.543040556843025,
    "lng": 127.0716890932269,
    "area": "건대",
    "kakao_url": "http://place.map.kakao.com/8029124",
    "naver_url": "",
    "source": "kakao"
  },
  {
    "name": "고기굽는놈",
    "category": "음식점 > 한식 > 육류,고기 > 갈비",
    "phone": "0503-7152-2178",
    "address": "서울 광진구 아차산로31길 8",
    "lat": 37.5413236953058,
    "lng": 127.069439119417,
    "area": "건대",
    "kakao_url": "http://place.map.kakao.com/24206169",
    "naver_url": "",
    "source": "kakao"
  },
  {
    "name": "타이인플레이트 건대점",
    "category": "음식점 > 아시아음식 > 동남아음식",
    "phone": "02-456-0086",
    "address": "서울 광진구 광나루로24길 15",
    "lat": 37.545644067264284,
    "lng": 127.07659474466053,
    "area": "건대",
    "kakao_url": "http://place.map.kakao.com/1861745249",
    "naver_url": "",
    "source": "kakao"
  },
  {
    "name": "마초쉐프 건대점",
    "category": "음식점 > 양식 > 이탈리안",
    "phone": "02-497-8886",
    "address": "서울 광진구 능동로 125",
    "lat": 37.5421875458696,
    "lng": 127.071300160681,
    "area": "건대",
    "kakao_url": "http://place.map.kakao.com/1359276887",
    "naver_url": "https://app.catchtable.co.kr/ct/shop/machoswepeu_geondae",
    "source": "both"
  },
  {
    "name": "하이디라오 건대점",
    "category": "음식점 > 중식 > 중국요리",
    "phone": "02-456-5683",
    "address": "서울 광진구 능동로 110",
    "lat": 37.54051623282344,
    "lng": 127.07123181020235,
    "area": "건대",
    "kakao_url": "http://place.map.kakao.com/1026281815",
    "naver_url": "https://app.catchtable.co.kr/ct/shop/haidilao_myungdong",
    "source": "both"
  },
  {
    "name": "짜글이미식회 광진점",
    "category": "음식점 > 한식",
    "phone": "",
    "address": "서울 광진구 광나루로20길 23",
    "lat": 37.54603918571147,
    "lng": 127.07443380994985,
    "area": "건대",
    "kakao_url": "http://place.map.kakao.com/454022974",
    "naver_url": "",
    "source": "kakao"
  },
  {
    "name": "반주옥",
    "category": "음식점 > 한식 > 국밥",
    "phone": "070-7893-1010",
    "address": "서울 광진구 능동로 172",
    "lat": 37.54586367470583,
    "lng": 127.07414168562278,
    "area": "건대",
    "kakao_url": "http://place.map.kakao.com/1335412367",
    "naver_url": "",
    "source": "kakao"
  },
  {
    "name": "미로",
    "category": "음식점 > 술집 > 호프,요리주점",
    "phone": "",
    "address": "서울 광진구 아차산로33길 21",
    "lat": 37.54131334078769,
    "lng": 127.07018930737374,
    "area": "건대",
    "kakao_url": "http://place.map.kakao.com/1957400265",
    "naver_url": "",
    "source": "kakao"
  },
  {
    "name": "도키도키",
    "category": "음식점 > 술집 > 일본식주점",
    "phone": "",
    "address": "서울 광진구 아차산로33길 43",
    "lat": 37.542223993805,
    "lng": 127.070621275318,
    "area": "건대",
    "kakao_url": "http://place.map.kakao.com/236352360",
    "naver_url": "",
    "source": "kakao"
  },
  {
    "name": "명태골",
    "category": "음식점 > 한식 > 해물,생선",
    "phone": "02-447-8292",
    "address": "서울 광진구 자양로 159",
    "lat": 37.541891092658624,
    "lng": 127.08369350869425,
    "area": "건대",
    "kakao_url": "http://place.map.kakao.com/34497375",
    "naver_url": "",
    "source": "kakao"
  },
  {
    "name": "늘푸른식당",
    "category": "음식점 > 한식",
    "phone": "02-3437-9988",
    "address": "서울 광진구 아차산로39길 28",
    "lat": 37.5390220351979,
    "lng": 127.076109352306,
    "area": "건대",
    "kakao_url": "http://place.map.kakao.com/191818006",
    "naver_url": "",
    "source": "kakao"
  },
  {
    "name": "건국불고기",
    "category": "음식점 > 한식 > 육류,고기",
    "phone": "010-2245-8442",
    "address": "서울 광진구 광나루로24길 15",
    "lat": 37.5455764960584,
    "lng": 127.076589017605,
    "area": "건대",
    "kakao_url": "http://place.map.kakao.com/1577510561",
    "naver_url": "",
    "source": "kakao"
  },
  {
    "name": "KFC 건대입구역점",
    "category": "음식점 > 패스트푸드 > KFC",
    "phone": "02-2135-2181",
    "address": "서울 광진구 아차산로 237",
    "lat": 37.5404981979832,
    "lng": 127.069747255368,
    "area": "건대",
    "kakao_url": "http://place.map.kakao.com/1282825559",
    "naver_url": "",
    "source": "kakao"
  },
  {
    "name": "한솥도시락 건대후문점",
    "category": "음식점 > 도시락 > 한솥도시락",
    "phone": "02-456-8889",
    "address": "서울 광진구 광나루로24길 21",
    "lat": 37.545456614078276,
    "lng": 127.07666471097063,
    "area": "건대",
    "kakao_url": "http://place.map.kakao.com/26199713",
    "naver_url": "",
    "source": "kakao"
  },
  {
    "name": "연탄불꿀곱창",
    "category": "음식점 > 한식 > 육류,고기 > 곱창,막창",
    "phone": "02-457-7333",
    "address": "서울 광진구 아차산로 305",
    "lat": 37.538436037977874,
    "lng": 127.07664620788039,
    "area": "건대",
    "kakao_url": "http://place.map.kakao.com/715808397",
    "naver_url": "",
    "source": "kakao"
  },
  {
    "name": "금하",
    "category": "음식점 > 중식 > 중국요리",
    "phone": "02-404-8000",
    "address": "서울 광진구 아차산로36길 5",
    "lat": 37.5382896041059,
    "lng": 127.074568671791,
    "area": "건대",
    "kakao_url": "http://place.map.kakao.com/27320023",
    "naver_url": "",
    "source": "kakao"
  },
  {
    "name": "신세대맥주 건대점",
    "category": "음식점 > 술집 > 호프,요리주점",
    "phone": "02-6053-9200",
    "address": "서울 광진구 동일로24길 103",
    "lat": 37.5423653944326,
    "lng": 127.070715326146,
    "area": "건대",
    "kakao_url": "http://place.map.kakao.com/1241470197",
    "naver_url": "",
    "source": "kakao"
  },
  {
    "name": "함흥본가면옥 건대점",
    "category": "음식점 > 한식 > 냉면",
    "phone": "02-447-8806",
    "address": "서울 광진구 광나루로 456",
    "lat": 37.5451805911085,
    "lng": 127.07986226799,
    "area": "건대",
    "kakao_url": "http://place.map.kakao.com/10921559",
    "naver_url": "https://www.instagram.com/hbmmj",
    "source": "both"
  },
  {
    "name": "진미평양냉면 별관",
    "category": "음식점 > 한식 > 냉면",
    "phone": "02-515-3469",
    "address": "서울 강남구 학동로 305-3",
    "lat": 37.5161357904841,
    "lng": 127.036047158128,
    "area": "강남",
    "kakao_url": "http://place.map.kakao.com/27584230",
    "naver_url": "",
    "source": "kakao"
  },
  {
    "name": "홍명",
    "category": "음식점 > 중식",
    "phone": "02-548-2223",
    "address": "서울 강남구 논현로131길 10",
    "lat": 37.5145374347634,
    "lng": 127.029458772737,
    "area": "강남",
    "kakao_url": "http://place.map.kakao.com/10972091",
    "naver_url": "",
    "source": "kakao"
  },
  {
    "name": "신동궁감자탕뼈숯불구이 선릉직영점",
    "category": "음식점 > 한식 > 감자탕",
    "phone": "02-558-7944",
    "address": "서울 강남구 선릉로86길 39",
    "lat": 37.5040848203409,
    "lng": 127.052892633601,
    "area": "강남",
    "kakao_url": "http://place.map.kakao.com/11356521",
    "naver_url": "",
    "source": "kakao"
  },
  {
    "name": "봉밀가 강남구청점",
    "category": "음식점 > 한식",
    "phone": "02-546-2305",
    "address": "서울 강남구 선릉로 664",
    "lat": 37.51598140935323,
    "lng": 127.04240520642307,
    "area": "강남",
    "kakao_url": "http://place.map.kakao.com/26794399",
    "naver_url": "",
    "source": "kakao"
  },
  {
    "name": "포브라더스 도곡점",
    "category": "음식점 > 아시아음식 > 동남아음식",
    "phone": "02-574-4147",
    "address": "서울 강남구 논현로28길 40",
    "lat": 37.4839991131454,
    "lng": 127.045330218763,
    "area": "강남",
    "kakao_url": "http://place.map.kakao.com/17662981",
    "naver_url": "",
    "source": "kakao"
  },
  {
    "name": "한일관 압구정점",
    "category": "음식점 > 한식",
    "phone": "02-732-3735",
    "address": "서울 강남구 압구정로38길 14",
    "lat": 37.5278246295028,
    "lng": 127.032491399045,
    "area": "강남",
    "kakao_url": "http://place.map.kakao.com/8475048",
    "naver_url": "",
    "source": "kakao"
  },
  {
    "name": "삼육가 논현직영점",
    "category": "음식점 > 한식 > 육류,고기",
    "phone": "02-541-8055",
    "address": "서울 강남구 강남대로114길 8",
    "lat": 37.50567257412158,
    "lng": 127.02501731668784,
    "area": "강남",
    "kakao_url": "http://place.map.kakao.com/27315574",
    "naver_url": "",
    "source": "kakao"
  },
  {
    "name": "평양면옥",
    "category": "음식점 > 한식 > 냉면",
    "phone": "02-549-5378",
    "address": "서울 강남구 논현로150길 6",
    "lat": 37.5189524291083,
    "lng": 127.029148302031,
    "area": "강남",
    "kakao_url": "http://place.map.kakao.com/8130016",
    "naver_url": "",
    "source": "kakao"
  },
  {
    "name": "을밀대컵냉면 역삼점",
    "category": "음식점 > 한식 > 냉면",
    "phone": "02-508-0280",
    "address": "서울 강남구 논현로85길 52",
    "lat": 37.49817766751348,
    "lng": 127.03364560600396,
    "area": "강남",
    "kakao_url": "http://place.map.kakao.com/904910835",
    "naver_url": "",
    "source": "kakao"
  },
  {
    "name": "외고집설렁탕",
    "category": "음식점 > 한식 > 설렁탕",
    "phone": "02-567-5225",
    "address": "서울 강남구 삼성로 555",
    "lat": 37.5110148935604,
    "lng": 127.053901906685,
    "area": "강남",
    "kakao_url": "http://place.map.kakao.com/8024422",
    "naver_url": "",
    "source": "kakao"
  },
  {
    "name": "유정식당",
    "category": "음식점 > 한식",
    "phone": "02-511-4592",
    "address": "서울 강남구 도산대로28길 14",
    "lat": 37.5183363984135,
    "lng": 127.028093809321,
    "area": "강남",
    "kakao_url": "http://place.map.kakao.com/16037952",
    "naver_url": "",
    "source": "kakao"
  },
  {
    "name": "리북집 논현직영점",
    "category": "음식점 > 한식 > 육류,고기 > 족발,보쌈",
    "phone": "02-540-8589",
    "address": "서울 강남구 학동로2길 47",
    "lat": 37.508625444727144,
    "lng": 127.0236723808219,
    "area": "강남",
    "kakao_url": "http://place.map.kakao.com/12435058",
    "naver_url": "",
    "source": "kakao"
  },
  {
    "name": "필경재",
    "category": "음식점 > 한식 > 한정식",
    "phone": "02-445-2115",
    "address": "서울 강남구 광평로 205",
    "lat": 37.4848559979643,
    "lng": 127.095261020971,
    "area": "강남",
    "kakao_url": "http://place.map.kakao.com/8128865",
    "naver_url": "",
    "source": "kakao"
  },
  {
    "name": "신미식당",
    "category": "음식점 > 한식 > 육류,고기",
    "phone": "02-516-4900",
    "address": "서울 강남구 압구정로 214",
    "lat": 37.52793498570478,
    "lng": 127.03087366251374,
    "area": "강남",
    "kakao_url": "http://place.map.kakao.com/11892123",
    "naver_url": "",
    "source": "kakao"
  },
  {
    "name": "교대이층집 강남역점",
    "category": "음식점 > 한식 > 육류,고기",
    "phone": "02-562-7113",
    "address": "서울 강남구 강남대로78길 14",
    "lat": 37.4948988432773,
    "lng": 127.030554736864,
    "area": "강남",
    "kakao_url": "http://place.map.kakao.com/1907052666",
    "naver_url": "",
    "source": "kakao"
  },
  {
    "name": "원스타올드패션드 햄버거",
    "category": "음식점 > 양식 > 햄버거",
    "phone": "0507-1448-4377",
    "address": "서울 강남구 논현로26길 23",
    "lat": 37.4828570001735,
    "lng": 127.044366225444,
    "area": "강남",
    "kakao_url": "http://place.map.kakao.com/2076338271",
    "naver_url": "",
    "source": "kakao"
  },
  {
    "name": "담솥압구정점",
    "category": "음식점",
    "phone": "",
    "address": "서울 강남구 선릉로155길 13",
    "lat": 37.5253297256905,
    "lng": 127.03857772608,
    "area": "강남",
    "kakao_url": "http://place.map.kakao.com/816901703",
    "naver_url": "https://youtu.be/97P82T1OcJ0?feature=shared",
    "source": "both"
  },
  {
    "name": "길목",
    "category": "음식점 > 한식 > 육류,고기",
    "phone": "02-518-9710",
    "address": "서울 강남구 영동대로129길 10",
    "lat": 37.519026323125196,
    "lng": 127.0564630117036,
    "area": "강남",
    "kakao_url": "http://place.map.kakao.com/27512695",
    "naver_url": "",
    "source": "kakao"
  },
  {
    "name": "몰타참치",
    "category": "음식점 > 일식 > 참치회",
    "phone": "02-508-7861",
    "address": "서울 강남구 삼성로85길 26",
    "lat": 37.5049524053801,
    "lng": 127.055046614037,
    "area": "강남",
    "kakao_url": "http://place.map.kakao.com/7877667",
    "naver_url": "",
    "source": "kakao"
  },
  {
    "name": "노아베이커리 압구정본점",
    "category": "음식점 > 간식 > 제과,베이커리",
    "phone": "02-546-7588",
    "address": "서울 강남구 압구정로30길 9",
    "lat": 37.5268163150621,
    "lng": 127.029409298149,
    "area": "강남",
    "kakao_url": "http://place.map.kakao.com/19561065",
    "naver_url": "",
    "source": "kakao"
  },
  {
    "name": "브릭오븐",
    "category": "음식점 > 양식 > 피자",
    "phone": "",
    "address": "서울 강남구 강남대로102길 31",
    "lat": 37.5030986851089,
    "lng": 127.027780482342,
    "area": "강남",
    "kakao_url": "http://place.map.kakao.com/19037502",
    "naver_url": "",
    "source": "kakao"
  },
  {
    "name": "평양면옥 도곡점",
    "category": "음식점 > 한식 > 냉면",
    "phone": "",
    "address": "서울 강남구 논현로28길 28",
    "lat": 37.4833361711177,
    "lng": 127.044805199004,
    "area": "강남",
    "kakao_url": "http://place.map.kakao.com/23995572",
    "naver_url": "",
    "source": "kakao"
  },
  {
    "name": "로마옥 도곡",
    "category": "음식점 > 양식",
    "phone": "02-577-2396",
    "address": "서울 강남구 강남대로48길 11",
    "lat": 37.48697261578926,
    "lng": 127.03408494512362,
    "area": "강남",
    "kakao_url": "http://place.map.kakao.com/237005010",
    "naver_url": "",
    "source": "kakao"
  },
  {
    "name": "신동궁감자탕뼈숯불구이 역삼직영점",
    "category": "음식점 > 한식 > 감자탕",
    "phone": "",
    "address": "서울 강남구 테헤란로10길 21",
    "lat": 37.49788594917416,
    "lng": 127.03290815160956,
    "area": "강남",
    "kakao_url": "http://place.map.kakao.com/7983060",
    "naver_url": "",
    "source": "kakao"
  },
  {
    "name": "빌즈 강남",
    "category": "음식점 > 양식",
    "phone": "02-568-1353",
    "address": "서울 강남구 테헤란로 142",
    "lat": 37.4997450385995,
    "lng": 127.034953620768,
    "area": "강남",
    "kakao_url": "http://place.map.kakao.com/1469510606",
    "naver_url": "",
    "source": "kakao"
  },
  {
    "name": "마켓오 압구정점",
    "category": "음식점 > 양식",
    "phone": "02-515-0105",
    "address": "서울 강남구 도산대로 310",
    "lat": 37.521617677973204,
    "lng": 127.03543893519856,
    "area": "강남",
    "kakao_url": "http://place.map.kakao.com/21311108",
    "naver_url": "",
    "source": "kakao"
  },
  {
    "name": "뽕나무쟁이 선릉본점",
    "category": "음식점 > 한식 > 육류,고기 > 족발,보쌈",
    "phone": "02-558-9279",
    "address": "서울 강남구 역삼로65길 31",
    "lat": 37.5032274550881,
    "lng": 127.052009891848,
    "area": "강남",
    "kakao_url": "http://place.map.kakao.com/11190567",
    "naver_url": "",
    "source": "kakao"
  },
  {
    "name": "신촌황소곱창 선릉직영점",
    "category": "음식점 > 한식 > 육류,고기 > 곱창,막창",
    "phone": "02-553-6698",
    "address": "서울 강남구 선릉로86길 32",
    "lat": 37.503706617934924,
    "lng": 127.0523992717223,
    "area": "강남",
    "kakao_url": "http://place.map.kakao.com/23372949",
    "naver_url": "",
    "source": "kakao"
  },
  {
    "name": "압구정하루",
    "category": "음식점 > 일식 > 돈까스,우동",
    "phone": "02-514-5557",
    "address": "서울 강남구 언주로172길 56",
    "lat": 37.526770520207805,
    "lng": 127.03829451168833,
    "area": "강남",
    "kakao_url": "http://place.map.kakao.com/10867025",
    "naver_url": "",
    "source": "kakao"
  },
  {
    "name": "이치에",
    "category": "음식점 > 술집 > 일본식주점",
    "phone": "070-4273-4087",
    "address": "서울 강남구 선릉로155길 23-3",
    "lat": 37.5253723624154,
    "lng": 127.037680643756,
    "area": "강남",
    "kakao_url": "http://place.map.kakao.com/18835270",
    "naver_url": "",
    "source": "kakao"
  },
  {
    "name": "무아",
    "category": "음식점 > 일식",
    "phone": "02-3445-3300",
    "address": "서울 강남구 논현로151길 33",
    "lat": 37.51969208654049,
    "lng": 127.02554234547894,
    "area": "강남",
    "kakao_url": "http://place.map.kakao.com/1336798749",
    "naver_url": "",
    "source": "kakao"
  },
  {
    "name": "참치공방 강남점",
    "category": "음식점 > 일식 > 참치회",
    "phone": "02-538-0220",
    "address": "서울 강남구 강남대로78길 18",
    "lat": 37.4950285047535,
    "lng": 127.03087594291,
    "area": "강남",
    "kakao_url": "http://place.map.kakao.com/1614493196",
    "naver_url": "",
    "source": "kakao"
  },
  {
    "name": "앨리스",
    "category": "음식점 > 술집 > 칵테일바",
    "phone": "02-511-8420",
    "address": "서울 강남구 도산대로55길 47",
    "lat": 37.5266903401031,
    "lng": 127.040953023206,
    "area": "강남",
    "kakao_url": "http://place.map.kakao.com/26857068",
    "naver_url": "",
    "source": "kakao"
  },
  {
    "name": "옛골꽁치김치찌개",
    "category": "음식점 > 한식 > 찌개,전골",
    "phone": "02-561-0591",
    "address": "서울 강남구 봉은사로24길 12",
    "lat": 37.5059374187823,
    "lng": 127.032613105257,
    "area": "강남",
    "kakao_url": "http://place.map.kakao.com/10629119",
    "naver_url": "",
    "source": "kakao"
  },
  {
    "name": "함흥면옥 압구정점",
    "category": "음식점 > 한식 > 냉면",
    "phone": "02-515-2505",
    "address": "서울 강남구 논현로 826",
    "lat": 37.5222250228676,
    "lng": 127.028529660232,
    "area": "강남",
    "kakao_url": "http://place.map.kakao.com/16617268",
    "naver_url": "",
    "source": "kakao"
  },
  {
    "name": "새벽집 청담점",
    "category": "음식점 > 한식 > 육류,고기",
    "phone": "02-546-5739",
    "address": "서울 강남구 도산대로101길 6",
    "lat": 37.52552600919063,
    "lng": 127.05288740471663,
    "area": "강남",
    "kakao_url": "http://place.map.kakao.com/19880897",
    "naver_url": "",
    "source": "kakao"
  },
  {
    "name": "오레노유메 가로수길점",
    "category": "음식점 > 술집 > 일본식주점",
    "phone": "02-512-1241",
    "address": "서울 강남구 압구정로2길 59",
    "lat": 37.5180890899063,
    "lng": 127.02158723184,
    "area": "강남",
    "kakao_url": "http://place.map.kakao.com/1309217753",
    "naver_url": "",
    "source": "kakao"
  },
  {
    "name": "일일향 2호점",
    "category": "음식점 > 중식 > 중국요리",
    "phone": "02-512-9181",
    "address": "서울 강남구 봉은사로 167",
    "lat": 37.507238568097,
    "lng": 127.032256273604,
    "area": "강남",
    "kakao_url": "http://place.map.kakao.com/26858784",
    "naver_url": "",
    "source": "kakao"
  },
  {
    "name": "60년전통신촌황소곱창 논현직영점",
    "category": "음식점 > 한식 > 육류,고기 > 곱창,막창",
    "phone": "02-511-4632",
    "address": "서울 강남구 봉은사로1길 37",
    "lat": 37.50711259255666,
    "lng": 127.02399423908794,
    "area": "강남",
    "kakao_url": "http://place.map.kakao.com/1660939960",
    "naver_url": "",
    "source": "kakao"
  },
  {
    "name": "동보성 강남점",
    "category": "음식점 > 중식 > 중국요리",
    "phone": "02-587-8000",
    "address": "서울 강남구 테헤란로 406",
    "lat": 37.50445724645707,
    "lng": 127.05011298848952,
    "area": "강남",
    "kakao_url": "http://place.map.kakao.com/19789536",
    "naver_url": "",
    "source": "kakao"
  },
  {
    "name": "갓덴스시 신사점",
    "category": "음식점 > 일식 > 초밥,롤",
    "phone": "02-3446-1477",
    "address": "서울 강남구 강남대로152길 40",
    "lat": 37.5179843960394,
    "lng": 127.022537382417,
    "area": "강남",
    "kakao_url": "http://place.map.kakao.com/18770926",
    "naver_url": "",
    "source": "kakao"
  },
  {
    "name": "장다리",
    "category": "음식점 > 한식 > 육류,고기 > 곱창,막창",
    "phone": "02-515-7286",
    "address": "서울 강남구 압구정로46길 5-14",
    "lat": 37.527914916517936,
    "lng": 127.03791044877384,
    "area": "강남",
    "kakao_url": "http://place.map.kakao.com/1321722203",
    "naver_url": "",
    "source": "kakao"
  },
  {
    "name": "삼식이감자탕",
    "category": "음식점 > 한식 > 감자탕",
    "phone": "02-529-0828",
    "address": "서울 강남구 논현로34길 19",
    "lat": 37.484741341467235,
    "lng": 127.04347185214749,
    "area": "강남",
    "kakao_url": "http://place.map.kakao.com/1008123763",
    "naver_url": "",
    "source": "kakao"
  },
  {
    "name": "압구정공주떡",
    "category": "음식점 > 간식 > 떡,한과",
    "phone": "02-516-3643",
    "address": "서울 강남구 논현로161길 10",
    "lat": 37.52356596669052,
    "lng": 127.02746679415719,
    "area": "강남",
    "kakao_url": "http://place.map.kakao.com/8746906",
    "naver_url": "",
    "source": "kakao"
  },
  {
    "name": "수다 삼성2호점",
    "category": "음식점 > 술집 > 일본식주점",
    "phone": "02-595-3584",
    "address": "서울 강남구 삼성로100길 23-13",
    "lat": 37.5108693587122,
    "lng": 127.056833509668,
    "area": "강남",
    "kakao_url": "http://place.map.kakao.com/1211307526",
    "naver_url": "",
    "source": "kakao"
  },
  {
    "name": "우와 홍대본점",
    "category": "음식점 > 일식",
    "phone": "0507-1414-9500",
    "address": "서울 마포구 와우산로21길 21-16",
    "lat": 37.5516835548182,
    "lng": 126.922172337916,
    "area": "홍대",
    "kakao_url": "http://place.map.kakao.com/400281849",
    "naver_url": "",
    "source": "kakao"
  },
  {
    "name": "홍대공감",
    "category": "음식점 > 술집 > 일본식주점",
    "phone": "02-336-1675",
    "address": "서울 마포구 와우산로17길 10",
    "lat": 37.5503070331279,
    "lng": 126.922481579553,
    "area": "홍대",
    "kakao_url": "http://place.map.kakao.com/1080030680",
    "naver_url": "",
    "source": "kakao"
  },
  {
    "name": "예티",
    "category": "음식점 > 아시아음식 > 인도음식",
    "phone": "02-325-0745",
    "address": "서울 마포구 와우산로18길 20",
    "lat": 37.55101619573641,
    "lng": 126.92398596129667,
    "area": "홍대",
    "kakao_url": "http://place.map.kakao.com/13284457",
    "naver_url": "",
    "source": "kakao"
  },
  {
    "name": "별빛퐁당",
    "category": "음식점 > 술집 > 칵테일바",
    "phone": "010-9470-9002",
    "address": "서울 마포구 와우산로 66",
    "lat": 37.5504048494414,
    "lng": 126.923260058316,
    "area": "홍대",
    "kakao_url": "http://place.map.kakao.com/19039771",
    "naver_url": "",
    "source": "kakao"
  },
  {
    "name": "비스트로주라 홍대점",
    "category": "음식점 > 양식",
    "phone": "02-6406-5640",
    "address": "서울 마포구 와우산로23길 18-7",
    "lat": 37.55403045101288,
    "lng": 126.92463702931563,
    "area": "홍대",
    "kakao_url": "http://place.map.kakao.com/27272711",
    "naver_url": "",
    "source": "kakao"
  },
  {
    "name": "외양간",
    "category": "음식점 > 한식 > 육류,고기",
    "phone": "02-3144-1888",
    "address": "서울 마포구 독막로18길 12",
    "lat": 37.547294927405275,
    "lng": 126.92376115498134,
    "area": "홍대",
    "kakao_url": "http://place.map.kakao.com/2131726669",
    "naver_url": "",
    "source": "kakao"
  },
  {
    "name": "썰스데이파티",
    "category": "음식점 > 술집 > 칵테일바",
    "phone": "02-324-6621",
    "address": "서울 마포구 와우산로21길 19-12",
    "lat": 37.55190552658781,
    "lng": 126.92266891451472,
    "area": "홍대",
    "kakao_url": "http://place.map.kakao.com/18769234",
    "naver_url": "",
    "source": "kakao"
  },
  {
    "name": "수지앤파스타",
    "category": "음식점 > 양식 > 이탈리안",
    "phone": "02-6397-8780",
    "address": "서울 마포구 독막로15길 3-18",
    "lat": 37.5486772386944,
    "lng": 126.921288265113,
    "area": "홍대",
    "kakao_url": "http://place.map.kakao.com/27468317",
    "naver_url": "",
    "source": "kakao"
  },
  {
    "name": "38도씨식당",
    "category": "음식점 > 술집 > 호프,요리주점",
    "phone": "070-4045-8387",
    "address": "서울 마포구 와우산로17길 19-17",
    "lat": 37.54942888613963,
    "lng": 126.9216111244117,
    "area": "홍대",
    "kakao_url": "http://place.map.kakao.com/1964922245",
    "naver_url": "",
    "source": "kakao"
  },
  {
    "name": "은행골 홍대점",
    "category": "음식점 > 일식 > 초밥,롤",
    "phone": "02-2637-4988",
    "address": "서울 마포구 와우산로15길 34",
    "lat": 37.5491711150725,
    "lng": 126.921482387583,
    "area": "홍대",
    "kakao_url": "http://place.map.kakao.com/27281186",
    "naver_url": "",
    "source": "kakao"
  },
  {
    "name": "카미야",
    "category": "음식점 > 일식 > 돈까스,우동",
    "phone": "02-322-5733",
    "address": "서울 마포구 와우산로21길 28-6",
    "lat": 37.552582876796265,
    "lng": 126.9223637900431,
    "area": "홍대",
    "kakao_url": "http://place.map.kakao.com/12771116",
    "naver_url": "",
    "source": "kakao"
  },
  {
    "name": "파스치노팬스테이크",
    "category": "음식점 > 양식 > 스테이크,립",
    "phone": "02-322-8575",
    "address": "서울 마포구 홍익로 10",
    "lat": 37.553755037782835,
    "lng": 126.92368893556716,
    "area": "홍대",
    "kakao_url": "http://place.map.kakao.com/22484613",
    "naver_url": "",
    "source": "kakao"
  },
  {
    "name": "삼거리포차",
    "category": "음식점 > 술집 > 실내포장마차",
    "phone": "02-3144-6748",
    "address": "서울 마포구 와우산로 70",
    "lat": 37.5506859753954,
    "lng": 126.923282403313,
    "area": "홍대",
    "kakao_url": "http://place.map.kakao.com/7919830",
    "naver_url": "",
    "source": "kakao"
  },
  {
    "name": "정돈",
    "category": "음식점 > 일식 > 돈까스,우동",
    "phone": "02-336-0923",
    "address": "서울 마포구 어울마당로 46",
    "lat": 37.5490662762738,
    "lng": 126.920998156993,
    "area": "홍대",
    "kakao_url": "http://place.map.kakao.com/90725902",
    "naver_url": "",
    "source": "kakao"
  },
  {
    "name": "펠앤콜 홍대본점",
    "category": "음식점 > 간식 > 아이스크림",
    "phone": "070-4411-1434",
    "address": "서울 마포구 와우산로 39-21",
    "lat": 37.5481588460157,
    "lng": 126.92216694975012,
    "area": "홍대",
    "kakao_url": "http://place.map.kakao.com/20752239",
    "naver_url": "",
    "source": "kakao"
  },
  {
    "name": "그녀의밥상",
    "category": "음식점 > 한식",
    "phone": "02-324-4074",
    "address": "서울 마포구 와우산로21길 36-4",
    "lat": 37.5525484047186,
    "lng": 126.922008475305,
    "area": "홍대",
    "kakao_url": "http://place.map.kakao.com/27282036",
    "naver_url": "",
    "source": "kakao"
  },
  {
    "name": "심양 홍대점",
    "category": "음식점 > 중식 > 양꼬치",
    "phone": "02-324-9212",
    "address": "서울 마포구 독막로9길 43",
    "lat": 37.5501579756375,
    "lng": 126.920535290192,
    "area": "홍대",
    "kakao_url": "http://place.map.kakao.com/14839666",
    "naver_url": "",
    "source": "kakao"
  },
  {
    "name": "경주식당",
    "category": "음식점 > 한식 > 육류,고기",
    "phone": "02-322-1674",
    "address": "서울 마포구 와우산로13길 49-7",
    "lat": 37.548424865676,
    "lng": 126.921148208727,
    "area": "홍대",
    "kakao_url": "http://place.map.kakao.com/27315733",
    "naver_url": "",
    "source": "kakao"
  },
  {
    "name": "부대옥 홍대점",
    "category": "음식점 > 한식 > 찌개,전골",
    "phone": "02-2039-9220",
    "address": "서울 마포구 어울마당로 56",
    "lat": 37.5499539358738,
    "lng": 126.921262026268,
    "area": "홍대",
    "kakao_url": "http://place.map.kakao.com/1798942415",
    "naver_url": "",
    "source": "kakao"
  },
  {
    "name": "홍대씨부엉",
    "category": "음식점 > 분식 > 떡볶이",
    "phone": "0503-7151-5277",
    "address": "서울 마포구 와우산로21길 28-6",
    "lat": 37.55258287828445,
    "lng": 126.92236605342154,
    "area": "홍대",
    "kakao_url": "http://place.map.kakao.com/1421762112",
    "naver_url": "",
    "source": "both"
  },
  {
    "name": "하카타분코",
    "category": "음식점 > 일식 > 일본식라면",
    "phone": "",
    "address": "서울 마포구 독막로19길 43",
    "lat": 37.5488915191848,
    "lng": 126.92379574116,
    "area": "홍대",
    "kakao_url": "http://place.map.kakao.com/21410206",
    "naver_url": "",
    "source": "kakao"
  },
  {
    "name": "클럽에반스",
    "category": "음식점 > 술집 > 칵테일바",
    "phone": "",
    "address": "서울 마포구 와우산로 63",
    "lat": 37.55026765598596,
    "lng": 126.92288901613414,
    "area": "홍대",
    "kakao_url": "http://place.map.kakao.com/8101657",
    "naver_url": "",
    "source": "kakao"
  },
  {
    "name": "플랑",
    "category": "음식점 > 간식 > 제과,베이커리",
    "phone": "010-5940-9400",
    "address": "서울 마포구 와우산로11길 9-8",
    "lat": 37.548571576845,
    "lng": 126.922278551902,
    "area": "홍대",
    "kakao_url": "http://place.map.kakao.com/729614334",
    "naver_url": "",
    "source": "kakao"
  },
  {
    "name": "홍대 조선시대",
    "category": "음식점 > 한식",
    "phone": "0502-5553-6223",
    "address": "서울 마포구 홍익로3길 44",
    "lat": 37.55264537945837,
    "lng": 126.92150590347114,
    "area": "홍대",
    "kakao_url": "http://place.map.kakao.com/1985225055",
    "naver_url": "",
    "source": "kakao"
  },
  {
    "name": "후타츠 홍대점",
    "category": "음식점 > 일식",
    "phone": "010-7173-1202",
    "address": "서울 마포구 와우산로15길 28",
    "lat": 37.5493488046611,
    "lng": 126.921773032955,
    "area": "홍대",
    "kakao_url": "http://place.map.kakao.com/398658415",
    "naver_url": "",
    "source": "kakao"
  },
  {
    "name": "지로우라멘",
    "category": "음식점 > 일식 > 일본식라면",
    "phone": "",
    "address": "서울 마포구 와우산로29가길 79",
    "lat": 37.5536965208231,
    "lng": 126.925171531217,
    "area": "홍대",
    "kakao_url": "http://place.map.kakao.com/23734945",
    "naver_url": "",
    "source": "kakao"
  },
  {
    "name": "티12",
    "category": "음식점 > 술집 > 칵테일바",
    "phone": "02-336-8506",
    "address": "서울 마포구 와우산로19길 15",
    "lat": 37.55117095734957,
    "lng": 126.92227924778294,
    "area": "홍대",
    "kakao_url": "http://place.map.kakao.com/15396050",
    "naver_url": "",
    "source": "kakao"
  },
  {
    "name": "미로식당",
    "category": "음식점 > 술집 > 호프,요리주점",
    "phone": "",
    "address": "서울 마포구 와우산로30길 80",
    "lat": 37.5520151534055,
    "lng": 126.927898301176,
    "area": "홍대",
    "kakao_url": "http://place.map.kakao.com/15659552",
    "naver_url": "",
    "source": "kakao"
  },
  {
    "name": "혼가츠",
    "category": "음식점 > 일식 > 돈까스,우동",
    "phone": "02-322-8850",
    "address": "서울 마포구 와우산로21길 36-6",
    "lat": 37.55263672935185,
    "lng": 126.92204912413379,
    "area": "홍대",
    "kakao_url": "http://place.map.kakao.com/22895023",
    "naver_url": "",
    "source": "kakao"
  },
  {
    "name": "산울림1992",
    "category": "음식점 > 술집 > 호프,요리주점",
    "phone": "02-334-0118",
    "address": "서울 마포구 서강로9길 60",
    "lat": 37.55464224823846,
    "lng": 126.93054626122678,
    "area": "홍대",
    "kakao_url": "http://place.map.kakao.com/2036183426",
    "naver_url": "",
    "source": "kakao"
  },
  {
    "name": "수림식당 홍대점",
    "category": "음식점 > 중식",
    "phone": "02-6326-5964",
    "address": "서울 마포구 와우산로21길 19-19",
    "lat": 37.5515406100427,
    "lng": 126.922650053086,
    "area": "홍대",
    "kakao_url": "http://place.map.kakao.com/1702747478",
    "naver_url": "",
    "source": "kakao"
  },
  {
    "name": "짬뽕지존 홍대점",
    "category": "음식점 > 중식 > 중국요리",
    "phone": "02-332-6158",
    "address": "서울 마포구 어울마당로 44-1",
    "lat": 37.5489472718339,
    "lng": 126.920889645631,
    "area": "홍대",
    "kakao_url": "http://place.map.kakao.com/2082473107",
    "naver_url": "",
    "source": "kakao"
  },
  {
    "name": "킹케밥 홍대점",
    "category": "음식점 > 아시아음식 > 튀르키예음식",
    "phone": "0503-7150-7895",
    "address": "서울 마포구 와우산로19길 19",
    "lat": 37.5511861012008,
    "lng": 126.922016684877,
    "area": "홍대",
    "kakao_url": "http://place.map.kakao.com/1040908557",
    "naver_url": "",
    "source": "kakao"
  },
  {
    "name": "네코노유부",
    "category": "음식점 > 일식 > 초밥,롤",
    "phone": "0502-5550-6829",
    "address": "서울 마포구 와우산로13길 49-11",
    "lat": 37.5482438896349,
    "lng": 126.921335117392,
    "area": "홍대",
    "kakao_url": "http://place.map.kakao.com/1501467963",
    "naver_url": "",
    "source": "kakao"
  },
  {
    "name": "오동 홍대본점",
    "category": "음식점 > 술집 > 실내포장마차",
    "phone": "",
    "address": "서울 마포구 와우산로 76",
    "lat": 37.55114471897176,
    "lng": 126.92349129173745,
    "area": "홍대",
    "kakao_url": "http://place.map.kakao.com/230936277",
    "naver_url": "",
    "source": "kakao"
  },
  {
    "name": "장인닭갈비 홍대점",
    "category": "음식점 > 한식 > 육류,고기 > 닭요리",
    "phone": "02-511-8812",
    "address": "서울 마포구 어울마당로 111-1",
    "lat": 37.55491677229308,
    "lng": 126.9228389569877,
    "area": "홍대",
    "kakao_url": "http://place.map.kakao.com/443293859",
    "naver_url": "https://jangindak.co.kr/",
    "source": "both"
  },
  {
    "name": "KFC 상수역점",
    "category": "음식점 > 패스트푸드 > KFC",
    "phone": "02-6956-9079",
    "address": "서울 마포구 와우산로 48",
    "lat": 37.54860552899241,
    "lng": 126.92321890107243,
    "area": "홍대",
    "kakao_url": "http://place.map.kakao.com/1651805625",
    "naver_url": "",
    "source": "kakao"
  },
  {
    "name": "후라토식당 상수직영점",
    "category": "음식점 > 일식 > 후라토식당",
    "phone": "0507-1394-7090",
    "address": "서울 마포구 독막로15길 3-14",
    "lat": 37.548594416247,
    "lng": 126.921392462135,
    "area": "홍대",
    "kakao_url": "http://place.map.kakao.com/2140388321",
    "naver_url": "",
    "source": "kakao"
  },
  {
    "name": "멘야산다이메 홍대점",
    "category": "음식점 > 일식 > 일본식라면",
    "phone": "02-332-4129",
    "address": "서울 마포구 홍익로5안길 24",
    "lat": 37.5536760629849,
    "lng": 126.921418812785,
    "area": "홍대",
    "kakao_url": "http://place.map.kakao.com/12887413",
    "naver_url": "",
    "source": "kakao"
  },
  {
    "name": "국시와 가래떡",
    "category": "음식점 > 한식 > 국수",
    "phone": "",
    "address": "서울 마포구 와우산로21길 8",
    "lat": 37.5525926298454,
    "lng": 126.923502260222,
    "area": "홍대",
    "kakao_url": "http://place.map.kakao.com/14734012",
    "naver_url": "",
    "source": "kakao"
  },
  {
    "name": "길상양꼬치",
    "category": "음식점 > 중식 > 양꼬치",
    "phone": "02-6015-8018",
    "address": "서울 마포구 와우산로21길 10",
    "lat": 37.552585349222,
    "lng": 126.923390230349,
    "area": "홍대",
    "kakao_url": "http://place.map.kakao.com/1661165863",
    "naver_url": "",
    "source": "kakao"
  },
  {
    "name": "누리마을감자탕 홍대직영점",
    "category": "음식점 > 한식 > 감자탕 > 누리마을감자탕",
    "phone": "02-2135-4566",
    "address": "서울 마포구 어울마당로 55-1",
    "lat": 37.55012305333584,
    "lng": 126.9208578483158,
    "area": "홍대",
    "kakao_url": "http://place.map.kakao.com/352518851",
    "naver_url": "",
    "source": "kakao"
  },
  {
    "name": "삼청당 홍대본점",
    "category": "음식점 > 분식",
    "phone": "",
    "address": "서울 마포구 와우산로 116",
    "lat": 37.55311245715513,
    "lng": 126.92625854529341,
    "area": "홍대",
    "kakao_url": "http://place.map.kakao.com/2081735366",
    "naver_url": "",
    "source": "kakao"
  },
  {
    "name": "황소랑 홍대점",
    "category": "음식점 > 한식 > 육류,고기",
    "phone": "02-332-9290",
    "address": "서울 마포구 와우산로29마길 23",
    "lat": 37.5551064174292,
    "lng": 126.926342591894,
    "area": "홍대",
    "kakao_url": "http://place.map.kakao.com/463727586",
    "naver_url": "",
    "source": "kakao"
  },
  {
    "name": "합정냉장고",
    "category": "음식점 > 한식 > 육류,고기",
    "phone": "02-334-1006",
    "address": "서울 마포구 양화로6길 99-10",
    "lat": 37.54867461491829,
    "lng": 126.9200649748674,
    "area": "홍대",
    "kakao_url": "http://place.map.kakao.com/680174173",
    "naver_url": "",
    "source": "kakao"
  },
  {
    "name": "풍천장어 연남점",
    "category": "음식점 > 한식 > 해물,생선 > 장어",
    "phone": "02-332-8361",
    "address": "서울 마포구 동교로27길 39",
    "lat": 37.5595470653124,
    "lng": 126.921575625947,
    "area": "연남",
    "kakao_url": "http://place.map.kakao.com/12572773",
    "naver_url": "",
    "source": "kakao"
  },
  {
    "name": "미미램양꼬치",
    "category": "음식점 > 중식 > 양꼬치",
    "phone": "02-6405-7666",
    "address": "서울 마포구 성미산로 196",
    "lat": 37.5625641216819,
    "lng": 126.926587650865,
    "area": "연남",
    "kakao_url": "http://place.map.kakao.com/780523213",
    "naver_url": "",
    "source": "kakao"
  },
  {
    "name": "송가네감자탕",
    "category": "음식점 > 한식 > 감자탕",
    "phone": "02-3141-6557",
    "address": "서울 마포구 동교로 245",
    "lat": 37.5618192051882,
    "lng": 126.924066665182,
    "area": "연남",
    "kakao_url": "http://place.map.kakao.com/663398130",
    "naver_url": "",
    "source": "kakao"
  },
  {
    "name": "수라간",
    "category": "음식점 > 한식",
    "phone": "070-8838-4335",
    "address": "서울 마포구 동교로38안길 3",
    "lat": 37.56197455425837,
    "lng": 126.92465619202022,
    "area": "연남",
    "kakao_url": "http://place.map.kakao.com/78995073",
    "naver_url": "",
    "source": "kakao"
  },
  {
    "name": "발리문",
    "category": "음식점 > 아시아음식 > 동남아음식",
    "phone": "070-7774-8282",
    "address": "서울 마포구 동교로 248-1",
    "lat": 37.5620249290629,
    "lng": 126.924529376015,
    "area": "연남",
    "kakao_url": "http://place.map.kakao.com/176930828",
    "naver_url": "",
    "source": "kakao"
  },
  {
    "name": "단단",
    "category": "음식점 > 술집 > 일본식주점",
    "phone": "070-8824-2298",
    "address": "서울 마포구 동교로 266-5",
    "lat": 37.5631447337716,
    "lng": 126.92573932565759,
    "area": "연남",
    "kakao_url": "http://place.map.kakao.com/25490925",
    "naver_url": "",
    "source": "kakao"
  },
  {
    "name": "모츠모츠",
    "category": "음식점 > 일식",
    "phone": "02-333-3397",
    "address": "서울 마포구 연남로3길 23",
    "lat": 37.5608948229449,
    "lng": 126.921375013733,
    "area": "연남",
    "kakao_url": "http://place.map.kakao.com/736219763",
    "naver_url": "",
    "source": "kakao"
  },
  {
    "name": "보스김밥 연트럴파크점",
    "category": "음식점 > 분식",
    "phone": "1811-8055",
    "address": "서울 마포구 성미산로 138",
    "lat": 37.563489215393865,
    "lng": 126.92201404901354,
    "area": "연남",
    "kakao_url": "http://place.map.kakao.com/758013871",
    "naver_url": "",
    "source": "kakao"
  },
  {
    "name": "경양카츠 연남본점",
    "category": "음식점 > 일식 > 돈까스,우동 > 경양카츠",
    "phone": "070-7543-5445",
    "address": "서울 마포구 동교로 238-1",
    "lat": 37.56117076322093,
    "lng": 126.92449628302029,
    "area": "연남",
    "kakao_url": "http://place.map.kakao.com/2123242037",
    "naver_url": "",
    "source": "kakao"
  },
  {
    "name": "이주방",
    "category": "음식점 > 술집 > 일본식주점",
    "phone": "02-336-3618",
    "address": "서울 마포구 연희로 33",
    "lat": 37.561839036949,
    "lng": 126.92693809781,
    "area": "연남",
    "kakao_url": "http://place.map.kakao.com/1315942810",
    "naver_url": "",
    "source": "kakao"
  },
  {
    "name": "샤브라운지",
    "category": "음식점 > 샤브샤브",
    "phone": "0507-1404-5912",
    "address": "서울 마포구 동교로36길 18",
    "lat": 37.5611352631741,
    "lng": 126.925345183371,
    "area": "연남",
    "kakao_url": "http://place.map.kakao.com/2041789191",
    "naver_url": "",
    "source": "kakao"
  },
  {
    "name": "상해소흘",
    "category": "음식점 > 중식 > 중국요리",
    "phone": "02-337-6188",
    "address": "서울 마포구 동교로 272",
    "lat": 37.5636188294645,
    "lng": 126.926012764447,
    "area": "연남",
    "kakao_url": "http://place.map.kakao.com/1882518839",
    "naver_url": "",
    "source": "kakao"
  },
  {
    "name": "고깃집아들",
    "category": "음식점 > 한식 > 육류,고기",
    "phone": "02-6014-0210",
    "address": "서울 마포구 성미산로29안길 19-4",
    "lat": 37.5655488639222,
    "lng": 126.92334639566242,
    "area": "연남",
    "kakao_url": "http://place.map.kakao.com/24894089",
    "naver_url": "",
    "source": "kakao"
  },
  {
    "name": "SF베이글",
    "category": "음식점 > 간식 > 제과,베이커리",
    "phone": "",
    "address": "서울 마포구 동교로46길 29",
    "lat": 37.56224414201071,
    "lng": 126.92638536616674,
    "area": "연남",
    "kakao_url": "http://place.map.kakao.com/27468834",
    "naver_url": "",
    "source": "kakao"
  },
  {
    "name": "수수연남",
    "category": "음식점 > 한식",
    "phone": "0502-5553-3703",
    "address": "서울 마포구 동교로38안길 22",
    "lat": 37.5622397989326,
    "lng": 126.925209392751,
    "area": "연남",
    "kakao_url": "http://place.map.kakao.com/408330463",
    "naver_url": "",
    "source": "kakao"
  },
  {
    "name": "연남한양집",
    "category": "음식점 > 한식",
    "phone": "0507-1358-0591",
    "address": "서울 마포구 동교로46길 26",
    "lat": 37.5621907802697,
    "lng": 126.926060581927,
    "area": "연남",
    "kakao_url": "http://place.map.kakao.com/2100655149",
    "naver_url": "",
    "source": "kakao"
  },
  {
    "name": "연남화로",
    "category": "음식점 > 한식 > 육류,고기",
    "phone": "0502-5550-9645",
    "address": "서울 마포구 성미산로 195",
    "lat": 37.56271021441901,
    "lng": 126.92679916219224,
    "area": "연남",
    "kakao_url": "http://place.map.kakao.com/422647142",
    "naver_url": "",
    "source": "kakao"
  },
  {
    "name": "향미",
    "category": "음식점 > 중식 > 중국요리",
    "phone": "0502-5552-6640",
    "address": "서울 마포구 성미산로 193",
    "lat": 37.5628660087221,
    "lng": 126.92667337490332,
    "area": "연남",
    "kakao_url": "http://place.map.kakao.com/642479510",
    "naver_url": "",
    "source": "kakao"
  },
  {
    "name": "나카스하이볼 클럽",
    "category": "음식점 > 술집",
    "phone": "",
    "address": "서울 마포구 연희로1길 59",
    "lat": 37.5614711241934,
    "lng": 126.926444981618,
    "area": "연남",
    "kakao_url": "http://place.map.kakao.com/339647749",
    "naver_url": "",
    "source": "kakao"
  },
  {
    "name": "불철",
    "category": "음식점 > 술집 > 일본식주점",
    "phone": "010-7788-1974",
    "address": "서울 마포구 동교로 266-10",
    "lat": 37.5628978566705,
    "lng": 126.925732779629,
    "area": "연남",
    "kakao_url": "http://place.map.kakao.com/1814550431",
    "naver_url": "",
    "source": "kakao"
  },
  {
    "name": "끝집 연남점",
    "category": "음식점 > 술집 > 호프,요리주점",
    "phone": "0502-5550-2017",
    "address": "서울 마포구 동교로 266-7",
    "lat": 37.5630934254012,
    "lng": 126.925816342318,
    "area": "연남",
    "kakao_url": "http://place.map.kakao.com/204717083",
    "naver_url": "",
    "source": "kakao"
  },