이름,세부카테고리,주소,위도,경도,전화번호,링크
보슬보슬 역삼본점,분식>종합분식,서울특별시 강남구 논현로85길 59 남곡빌딩 1층,37.4977095,127.0332676,,https://www.instagram.com/boseulboseul
도산분식 도산공원점,분식>종합분식,서울특별시 강남구 도산대로49길 10-6 젤로빌딩,37.5237122,127.0379130,,http://www.instagram.com/dosanbunsik
보슬보슬 압구정본점,분식>종합분식,"서울특별시 강남구 압구정로 216 지상 1층 16, 17, 18, 19호",37.5279499,127.0311757,,https://www.instagram.com/boseulboseul
깨돌이김밥,분식>김밥,서울특별시 강동구 천호대로157길 54,37.5400702,127.1280290,,
제일분식,분식>떡볶이,서울특별시 강북구 숭인로 65-3,37.6126969,127.0289893,,
맛밥김밥전문점 삼양점,분식>김밥,서울특별시 강북구 솔샘로 254 삼양아케이트,37.6193949,127.0208540,,
썬데이스낵,분식>종합분식,서울특별시 강북구 도봉로10길 54 남상빌딩 1층,37.6150353,127.0309388,,https://smartstore.naver.com/sundaysnack
이삭토스트 수유역점,분식>토스트,서울특별시 강북구 오패산로 413,37.6374221,127.0262746,,https://smartorder.beaverworksinc.com/brand/901216
화곡미담분식 까치산본점,분식>종합분식,서울특별시 강서구 강서로7길 15 화곡미담분식,37.5295334,126.8468994,,https://www.instagram.com/midamfriends
이삭토스트 까치산역점,분식>토스트,서울특별시 강서구 강서로 47 형진빌딩 1층 102호 이삭토스트,37.5319446,126.8463822,,https://smartorder.beaverworksinc.com/brand/901216
오월의김밥,분식>김밥,서울특별시 관악구 봉천로 605 102호,37.4760838,126.9646138,,
싸다김밥 사당역점,분식>김밥,서울특별시 관악구 남현길 7 1층102호,37.4761717,126.9776738,,
황순애신토불이떡볶이,분식>떡볶이,서울특별시 광진구 천호대로129길 15 102호,37.5527299,127.0904770,,
신토불이 떡볶이 본점,분식>떡볶이,서울특별시 광진구 자양로43길 42,37.5526000,127.0905000,,
순금이떡볶이 아차산 본점,분식>떡볶이,서울특별시 광진구 자양로43길 43,37.5525171,127.0902000,,
모두랑,분식>종합분식,서울특별시 광진구 자양로28길 24,37.5420971,127.0855240,,http://모두랑.com/
이화만두,분식>만두,서울특별시 광진구 능동로 278-1 이화만두,37.5547266,127.0784423,,https://instagram.com/ewhamandu
먹깨비김밥,분식>김밥,서울특별시 구로구 디지털로32길 87,37.4832881,126.9000183,,
연희김밥,분식>김밥,서울특별시 구로구 오리로 1149 비110호,37.4867220,126.8383748,,
할매손충무김밥 홈플러스 금천점,분식>김밥,서울특별시 금천구 시흥대로 391,37.4686638,126.8968853,,
김밥전문공간얌얌 본점,분식>김밥,서울특별시 금천구 금하로 675 1층,37.4527873,126.9053869,,
피노키오냉면,분식>종합분식,서울특별시 노원구 한글비석로 474 보람상가,37.6648548,127.0654931,,
쪼매매운떡볶이 공릉,분식>떡볶이,서울특별시 노원구 공릉로 208,37.6281849,127.0778159,,
점순이하우스,분식>종합분식,서울특별시 도봉구 노해로63길 84-3,37.6527003,127.0469032,,
명동분식 방학본점,분식>종합분식,서울특별시 도봉구 도당로13가길 6 도깨비시장 명동분식,37.6655143,127.0358318,,
도레미분식 즉석떡볶이,분식>떡볶이,서울특별시 도봉구 삼양로144길 18,37.6513487,127.0138750,,http://instagram.com/doremi__yum
스토리웨이 도봉산역맞이방분식점,분식>종합분식,서울특별시 동대문구 회기로26길 15,37.5902492,127.0532223,,
의정부맞이방스넥점,분식>종합분식,서울특별시 동대문구 왕산로 214,37.5813870,127.0489790,,
놀부만두,분식>만두,"서울특별시 동대문구 망우로16길 15 1F, 놀부만두",37.5893787,127.0614705,,
서울김밥 장안점,분식>김밥,서울특별시 동대문구 답십리로72길 24 1층 서울김밥,37.5710390,127.0740230,,
애플하우스,분식>떡볶이,서울특별시 동작구 동작대로27다길 29 2층,37.4863013,126.9806796,,
이삭토스트 신대방삼거리역점,분식>토스트,서울특별시 동작구 국사봉1길 7,37.4989692,126.9289469,,https://smartorder.beaverworksinc.com/brand/901216
방배김밥 본점,분식>김밥,서울특별시 동작구 동작대로27길 59-16,37.4881355,126.9783882,,https://bbkb.co.kr/
그동네떡볶이 연남점,분식>종합분식,서울특별시 마포구 동교로 243 1층,37.5616751,126.9241019,,
홍대조폭떡볶이 홍대2호점,분식>떡볶이,서울특별시 마포구 홍익로6길 38 1층,37.5558918,126.9237556,,
홍대씨부엉,분식>떡볶이,서울특별시 마포구 와우산로21길 28-6,37.5525889,126.9223397,,
연희김밥 본점,분식>김밥,서울특별시 서대문구 연희로11가길 2,37.5680852,126.9294260,,
키친봄날,분식>김밥,서울특별시 서대문구 신촌로11길 62 1층 키친봄날,37.5589511,126.9344517,,
엄마손떡볶이,분식>떡볶이,서울특별시 서대문구 증가로10길 37,37.5789339,126.9241615,,
오렌지김밥 본점,분식>김밥,서울특별시 서대문구 세무서길 43-1 1층 오렌지김밥,37.5899197,126.9458807,,
불란집,분식>종합분식,서울특별시 서대문구 통일로 445,37.5884493,126.9442653,,
장원김밥 서초점,분식>김밥,서울특별시 서초구 서초대로77길 31,37.5006488,127.0254357,,
유미분김밥 방배 직영점,분식>김밥,서울특별시 서초구 방배로28길 7 1층,37.4903096,126.9926175,,http://instagram.com/youmeboon
악어떡볶이,분식>종합분식,서울특별시 성동구 마조로 33,37.5607215,127.0410110,,https://smartstore.naver.com/age_tbk
만두전빵,분식>만두,서울특별시 성동구 행당로15길 2-1 만두전빵,37.5583583,127.0319155,,https://www.instagram.com/mandoo_jeonbbang
띠또분식,분식>종합분식,서울특별시 성동구 왕십리로 83-21 디타워 서울 포레스트 B110호,37.5439165,127.0442160,,https://smartstore.naver.com/ttitto
수아당 성북점,분식>김밥,서울특별시 성북구 동소문로20가길 33,37.5930550,127.0180401,,https://www.instagram.com/suadang_official
고른햇살,분식>종합분식,서울특별시 성북구 개운사길 14,37.5870154,127.0294687,,
사발떡볶이,분식>떡볶이,서울특별시 성북구 정릉로6길 45,37.6103296,126.9941028,,
골목떡볶이,분식>떡볶이,서울특별시 송파구 문정로1길 33,37.4890997,127.1234868,,
모꼬지에,분식>떡볶이,서울특별시 송파구 송파대로36길 5-13 지하,37.5004678,127.1123698,,https://blog.naver.com/isneoum72
마미떡 송파점,분식>떡볶이,서울특별시 송파구 백제고분로45길 30 203호,37.5104801,127.1084759,,https://www.instagram.com/mommytteok_songpa/?igsh=MXB0bTY1MTRjbWF6bA%3D%3D
까치네김밥 오목교점,분식>김밥,서울특별시 양천구 오목로 324,37.5245530,126.8733529,,
분식의신 킴스클럽목동점,분식>종합분식,서울특별시 양천구 목동동로 309,37.5292353,126.8759987,,
다복 본점,분식>떡볶이,서울특별시 양천구 신월로 170,37.5180373,126.8424762,,
도리식탁 목동본점,분식>떡볶이,서울특별시 양천구 목동동로 233-1 102호 도리식탁,37.5275117,126.8715493,,https://www.instagram.com/doris_table00
영일분식,분식>종합분식,서울특별시 영등포구 도림로141가길 34-1,37.5162833,126.8896750,,
김밥처럼 선유도역 본점,분식>종합분식,서울특별시 영등포구 양평로22길 13 라이너빌딩 1층 김밥처럼,37.5388935,126.8945481,,https://youtube.com/@si_seunghoon
현선이네 프리미엄 IFC몰점,분식>종합분식,서울특별시 영등포구 국제금융로 10 IFC몰 지하2층 현선이네프리미엄,37.5241142,126.9253224,,https://smartstore.naver.com/hyunsunine
한입소반,분식>김밥,서울특별시 용산구 청파로45길 3 1층,37.5441622,126.9703717,,http://www.hanipsoban.com
현선이네 용산본점,분식>떡볶이,서울특별시 용산구 한강대로39길 2-13,37.5311551,126.9692251,,https://www.instagram.com/hyunsunine_
한우가수제분식,분식>종합분식,서울특별시 용산구 한강대로21나길 17,37.5293570,126.9639296,,
스마일이촌떡볶이,분식>종합분식,서울특별시 용산구 이촌로65가길 72,37.5208846,126.9750275,,
김마리밥 연신내점,분식>김밥,서울특별시 은평구 통일로 863-4,37.6199123,126.9198602,,
갈현동할머니떡볶이,분식>떡볶이,서울특별시 은평구 통일로87길 8-1,37.6234847,126.9187944,,
갈현동떡볶이,분식>떡볶이,서울특별시 은평구 연서로29길 24 정운빌딩,37.6196089,126.9177280,,
이삭토스트 응암이마트점,분식>토스트,서울특별시 은평구 은평로 96 1층 103호,37.5995020,126.9184857,,https://smartorder.beaverworksinc.com/brand/901216
옥이네김밥,분식>종합분식,서울특별시 은평구 연서로 247,37.6197761,126.9221684,,
모녀김밥,분식>김밥,서울특별시 종로구 동호로 403-23,37.5702936,127.0011008,,
깡통만두,분식>만두,서울특별시 종로구 북촌로2길 5-6 1층,37.5781763,126.9860918,,https://app.catchtable.co.kr/ct/shop/kkangttong
봉쥬떡볶이,분식>떡볶이,서울특별시 종로구 대명길 4 지하1층,37.5838366,127.0011706,,http://instagram.com/
나누미떡볶이 성대본점,분식>떡볶이,서울특별시 종로구 성균관로 9-1,37.5837668,126.9979068,,
자하손만두,분식>만두,서울특별시 종로구 백석동길 12,37.5932163,126.9660928,,https://app.catchtable.co.kr/ct/shop/jahasonmandoo
아이러브신당동,분식>떡볶이,서울특별시 중구 퇴계로76길 50 아이러브떡볶이,37.5631829,127.0148534,,https://www.instagram.com/i_love_sindang_dong
마복림할머니집,분식>떡볶이,서울특별시 중구 다산로35길 5,37.5633128,127.0151253,,
가메골손왕만두 남대문본점,분식>만두,서울특별시 중구 남대문시장4길 42,37.5584236,126.9771357,,http://smartstore.naver.com/gamegol
우정,분식>떡볶이,서울특별시 중구 퇴계로76길 55,37.5628442,127.0149572,,
홍이네떡볶이,분식>떡볶이,서울특별시 중랑구 망우로73길 26,37.6017069,127.1033500,,
미아리우동집,분식>종합분식,서울특별시 중랑구 면목로 481,37.5946987,127.0857121,,
김밥사랑 사가정본점,분식>김밥,서울특별시 중랑구 사가정로52길 22,37.5798198,127.0867682,,
빨간오뎅 부산어묵,분식>종합분식,서울특별시 강남구 개포로82길 13-11 4층,37.4887195,127.0681232,,
파파쿡김밥,분식>김밥,서울특별시 성동구 독서당로 381 현대종합상가 1층 파파쿡김밥,37.5502066,127.0308189,,
이삭토스트 만리시장점,분식>토스트,서울특별시 용산구 효창원로 240-1,37.5485928,126.9635346,,https://smartorder.beaverworksinc.com/brand/901216
셀프하우스,분식>종합분식,서울특별시 강동구 올림픽로 572 코오롱 2차 아파트 101동 107호,37.5323376,127.1217043,,
로데오김밥 사당점,분식>김밥,서울특별시 관악구 승방길 6,37.4740088,126.9815887,,
떡볶이랑 걸레만두랑,분식>떡볶이,서울특별시 금천구 시흥대로50길 31 1층,37.4517501,126.9037916,,https://www.instagram.com/geol_mandu
이삭토스트 창동하나로클럽점,분식>토스트,서울특별시 도봉구 마들로11길 20,37.6551181,127.0519512,,https://smartorder.beaverworksinc.com/brand/901216
이삭토스트 창동역서부점,분식>토스트,서울특별시 도봉구 노해로65길 11 한성빌딩 1층 6호 이삭토스트,37.6517559,127.0463516,,https://smartorder.beaverworksinc.com/brand/901216
송이네,분식>종합분식,서울특별시 마포구 포은로8길 21,37.5566413,126.9059159,,https://youtube.com/@100millionsongyi
철길떡볶기,분식>떡볶이,서울특별시 서대문구 충정로5길 11,37.5626500,126.9634943,,
이공김밥 안암본점,분식>김밥,서울특별시 성북구 안암로 61-6 1층 이공김밥,37.5823750,127.0284678,,
사보르김밥 월곡점,분식>종합분식,서울특별시 성북구 화랑로13길 8,37.6037017,127.0428332,,
유자유김치떡볶이 본점,분식>떡볶이,서울특별시 성북구 고려대로24길 48 2층,37.5840101,127.0293052,,http://ujau.net/
홍떡볶이,분식>종합분식,서울특별시 양천구 목동중앙남로 57-6,37.5390293,126.8659762,,
코야코,분식>떡볶이,서울특별시 종로구 동숭길 68 1층 코야코,37.5812929,127.0042899,,
김정희김밥,분식>김밥,서울특별시 중랑구 면목로 478-1,37.5946301,127.0861912,,
