이름,세부카테고리,주소,위도,경도,전화번호,링크
장인닭갈비 강남점,한식>닭갈비,서울특별시 강남구 테헤란로1길 19,37.4996548,127.0274938,,https://jangindak.co.kr/
고수닭갈비,한식>닭갈비,서울특별시 강남구 강남대로96길 12 지천빌딩 지하1층,37.4997744,127.0281716,,
부대찌개대사관 선릉직영점,"한식>찌개,전골",서울특별시 강남구 선릉로86길 24 지상 1층,37.5034990,127.0516770,,https://blog.naver.com/embassy-
류몽민 학동역점,한식>닭갈비,서울특별시 강남구 학동로25길 11 씨플레이스 2층 101호,37.5143513,127.0289295,,https://smartstore.naver.com/ryumokmin
미나리밭오리사냥 강남역점,한식>오리요리,서울특별시 강남구 테헤란로1길 28-8 1층,37.5003294,127.0281201,,https://www.instagram.com/minari_duck
동어동락 삼성본점,한식>생선회,서울특별시 강남구 삼성로96길 7 1층,37.5088156,127.0564470,,https://app.catchtable.co.kr/ct/shop/dongadongrock_samseong
대진 도원참치 강남역점,한식>생선회,서울특별시 강남구 테헤란로 113 목화밀라트 지하1층 도원참치 강남역,37.4988646,127.0296469,,https://youtube.com/@dowontuna
백세삼계탕 강동점,"한식>백숙,삼계탕",서울특별시 강동구 양재대로 1401,37.5313001,127.1370607,,
등갈비달인 본점,"한식>육류,고기요리",서울특별시 강동구 천호대로158길 25 1층,37.5362863,127.1263331,,https://www.facebook.com/emdrkfql/
대팔이네곱창 천호본점,"한식>곱창,막창,양",서울특별시 강동구 구천면로24길 20-9 1층,37.5398398,127.1254825,,https://instagram.com/tiger_sden
119닭발 천호 본점,한식>닭발,서울특별시 강동구 천중로 73,37.5449999,127.1301681,,https://blog.naver.com/119gram
119닭발 성내점,한식>닭발,서울특별시 강동구 양재대로87길 81 1층 119닭발 성내점,37.5264388,127.1305704,,https://blog.naver.com/119gram
명인갈비 미아점,"한식>육류,고기요리",서울특별시 강북구 솔샘로 327 테마빌딩 1층 101호 명인갈비 미아점,37.6173484,127.0285916,,https://app.catchtable.co.kr/ct/shop/migbmia
수유곱창 황주집 본점,"한식>곱창,막창,양",서울특별시 강북구 도봉로 372 단충,37.6401750,127.0282810,,https://www.instagram.com/
짚신매운갈비찜 미아본점,"한식>육류,고기요리",서울특별시 강북구 월계로7나길 30-9 1층,37.6128385,127.0319616,,http://www.zipsinfood.co.kr/
이설함흥냉면 수유본점,한식>냉면,서울특별시 강북구 4.19로 42 이설함흥냉면 수유본점,37.6473378,127.0096772,,http://m.smartstore.naver.com/gt3
수유골목냉면 본점,한식>냉면,서울특별시 강북구 솔매로45길 92,37.6300292,127.0240125,,https://golmokicenoodle.com/
낙지일번지 수유본점,한식>낙지요리,서울특별시 강북구 도봉로89길 10,37.6392031,127.0260760,,https://blog.naver.com/nakji1bunji
호조참치,한식>생선회,서울특별시 강북구 한천로 1062,37.6415762,127.0249424,,
화곡영양족발,"한식>족발,보쌈",서울특별시 강서구 초록마을로2길 48 1층 화곡영양족발,37.5432636,126.8434604,,https://hwagok-jokbal.wywh.co.kr/
돈구멍 마곡본점,"한식>육류,고기요리",서울특별시 강서구 마곡동로 62 마곡사이언스타워 2층스타벅스옆/201호 돈구멍 마곡본점,37.5605971,126.8338655,,https://catchtable.co.kr/dongumung_magok
산청숯불가든 마곡,"한식>육류,고기요리",서울특별시 강서구 마곡중앙8로 85 1층 102~108호,37.5610828,126.8369018,,https://www.instagram.com/sancheongin/
광선집 마곡 발산역 직영점,"한식>육류,고기요리",서울특별시 강서구 강서로 415 1층 101호,37.5626000,126.8389386,,https://app.catchtable.co.kr/ct/shop/gwangseonjib.MG
쭈박사 마곡점,한식>주꾸미요리,서울특별시 강서구 마곡동로10길 23 대방디엠시티2차오피스텔 1층 130호 쭈박사 마곡점,37.5689322,126.8391317,,https://www.instagram.com/jjudoctor/
이조면옥,한식>냉면,서울특별시 강서구 양천로 353,37.5683668,126.8421829,,
막회집,한식>생선회,서울특별시 강서구 마곡서로 152 두산더랜드타워 B동 112호113호,37.5676701,126.8259797,,https://app.catchtable.co.kr/ct/shop/makhoejip
쭈앤쭈 서울대본점,한식>주꾸미요리,서울특별시 관악구 관악로14길 11 1층 쭈앤쭈 서울대본점,37.4792455,126.9532191,,https://www.instagram.com/jjunjju.kr
부뚜막 신림본점,"한식>육류,고기요리","서울특별시 관악구 남부순환로 1597-15 1층, 부뚜막",37.4847139,126.9275761,,
월화고기 보라매점,"한식>육류,고기요리",서울특별시 관악구 보라매로3길 16,37.4916407,126.9263015,,https://blog.naver.com/wolhwa_gogi
강강술래 신림본동점,"한식>육류,고기요리",서울특별시 관악구 남부순환로 1660,37.4846464,126.9350249,,https://sullai.com/
유가네닭갈비 신림점,한식>닭갈비,서울특별시 관악구 남부순환로176길 9 제일빌딩,37.4835458,126.9284710,,https://www.instagram.com/yoogane_sillim
계탄언니 사당본점,한식>닭갈비,서울특별시 관악구 과천대로 951 지하 1층,37.4755188,126.9813088,,https://luckygirls.co.kr/
하와이조개 신림본점,한식>조개요리,서울특별시 관악구 신림로59길 15-6 1층 하와이조개 신림본점,37.4828380,126.9289721,,http://하와이조개.com/
속초오징어어시장 서울대입구역점,한식>생선회,서울특별시 관악구 남부순환로224길 13 1층,37.4801978,126.9534015,,
숙성부심 군자본점,한식>돼지고기구이,서울특별시 광진구 능동로 267 1층,37.5539087,127.0774430,,https://www.instagram.com/sooksungboosim?igsh=MWU1aGZyeTJscjVhOQ==
최원석의돼지한판&amp;화식한우 구의점,"한식>육류,고기요리",서울특별시 광진구 아차산로 478,37.5403894,127.0949628,,http://www.instagram.com/pig_k.o
화기애애 본점,"한식>육류,고기요리",서울특별시 광진구 아차산로31길 16,37.5418215,127.0696696,,https://app.catchtable.co.kr/ct/shop/hkee_ku
부대찌개대사관 구로디지털본점,"한식>찌개,전골",서울특별시 구로구 디지털로33길 12 1층 104호,37.4864437,126.8959214,,https://www.instagram.com/_embassyofficial/
봉고기,"한식>육류,고기요리",서울특별시 구로구 경인로 619-3 푸르지오 3차 아파트 상가 1층,37.5068693,126.8838985,,http://pf.kakao.com/_GnjSK
새벽집 양곱창,"한식>곱창,막창,양",서울특별시 구로구 경인로 619-60 1층 (신도림동) 신도림맛집 새벽집양곱창,37.5073149,126.8843639,,
더족발 신도림본점,"한식>족발,보쌈",서울특별시 구로구 경인로 619-3 신도림3차푸르지오아파트 상가 1층 더족발,37.5065715,126.8840032,,https://www.instagram.com/sindorim_thejokbal/
반달수산,한식>생선회,서울특별시 구로구 디지털로32길 97-9,37.4834953,126.9006552,,
크랩회피쉬 구로디지털단지점,한식>생선회,서울특별시 구로구 디지털로32가길 25 1층 102-4호,37.4822973,126.8989564,,
한옥집 숯불갈비 서울본점,"한식>육류,고기요리",서울특별시 금천구 시흥대로141길 71 1층,37.4760703,126.8976798,,https://blog.naver.com/hanokjip_beef
강강술래 시흥점,"한식>육류,고기요리","서울특별시 금천구 시흥대로 193 아람아이씨티타워 1층,2층",37.4509191,126.9014603,,https://sullai.com/
문정곱창 가산본점,"한식>곱창,막창,양","서울특별시 금천구 디지털로12길 37 1층 103, 104호",37.4771674,126.8902678,,
푸름상회,한식>돼지고기구이,서울특별시 금천구 시흥대로52길 18 1층 푸름상회,37.4522600,126.9025431,,https://app.catchtable.co.kr/ct/shop/pureum_meat
원다정 왕소금구이,한식>돼지고기구이,서울특별시 금천구 시흥대로48길 1 1층,37.4510585,126.9029904,,https://www.instagram.com/wdj_gogizip
감동식당 노원본점,"한식>육류,고기요리",서울특별시 노원구 한글비석로47길 58 1층,37.6615727,127.0666127,,https://blog.naver.com/gamdong_sikdang
강강술래 상계점,"한식>육류,고기요리",서울특별시 노원구 동일로 1628 상계동강강술래,37.6738690,127.0560876,,https://sullai.com/
중계고기파티 노원본점,"한식>육류,고기요리",서울특별시 노원구 중계로12길 6 중계고기파티 노원본점,37.6476552,127.0811453,,https://www.instagram.com/gogipart365
신가네칼국수,"한식>칼국수,만두",서울특별시 노원구 공릉로65길 10 신가네칼국수,37.6355821,127.0704332,,https://youtube.com/
다함닭갈비 노원역직영점,한식>닭갈비,서울특별시 노원구 상계로3길 38-6 1층 다함닭갈비 노원역직영점,37.6579425,127.0629148,,https://www.instagram.com/dahamnowon
장안동 본참치,한식>생선회,서울특별시 노원구 동일로174길 7 1층,37.6188607,127.0759566,,
하누소 창동본점,한식>소고기구이,서울특별시 도봉구 노해로 327,37.6515124,127.0448206,,https://www.hanuso.co.kr/
고기굽는베베,"한식>육류,고기요리",서울특별시 도봉구 도봉로 723,37.6691316,127.0432372,,https://www.youtube.com/channel/UC68Vo9ML9eyrF6UrNeSqg7g
소통애 창동본점,"한식>육류,고기요리",서울특별시 도봉구 도봉로136가길 73 104동 107호,37.6554896,127.0424164,,https://blog.naver.com/redjjang7
미스터빽실장 쌍문본점,한식>생선회,서울특별시 도봉구 도봉로 458 1층 미스터빽실장,37.6465498,127.0338876,,https://baemin.me/pt8IuqvCik
대문한정식,한식>한정식,서울특별시 도봉구 시루봉로 139-6,37.6637487,127.0275749,,https://www.instagram.com/bang_hak_daemoo
나정순할매쭈꾸미,한식>주꾸미요리,서울특별시 동대문구 무학로 144,37.5771000,127.0306874,,
서파넓적갈비 용두점,"한식>육류,고기요리",서울특별시 동대문구 천호대로31길 16 탑빌딩 1층,37.5742256,127.0407500,,https://www.instagram.com/seopa_galbi
호감해장,한식>해장국,서울특별시 동대문구 홍릉로1길 17 1층 제 15호 호감해장,37.5807452,127.0438819,,https://www.instagram.com/hogam_haejang
제주미향해장 본점,한식>해장국,서울특별시 동대문구 경동시장로10길 46 1층,37.5812891,127.0432545,,https://www.instagram.com/jejumihyang_cheongnyangni/
거복이식당 회기 본점,한식>돼지고기구이,서울특별시 동대문구 경희대로3길 6,37.5927676,127.0521778,,http://www.instagram.com/geobokye_sikdang
본참치,한식>생선회,서울특별시 동대문구 장한로 20 2층,37.5630162,127.0659756,,
일등수산,한식>생선회,서울특별시 동대문구 전농로10길 20,37.5746632,127.0584739,,
대가참치,한식>생선회,서울특별시 동대문구 천호대로85길 11 대가참치,37.5626419,127.0661158,,
육태기 사당본점,"한식>육류,고기요리",서울특별시 동작구 사당로30길 115 1층,37.4797403,126.9808177,,https://kko.to/EKipNCu4Gj
서일순대국,"한식>순대,순댓국",서울특별시 동작구 여의대방로22길 20,37.4974702,126.9209446,,
화설 이수직영점,"한식>육류,고기요리",서울특별시 동작구 동작대로25길 13 1~2층,37.4862698,126.9812202,,https://app.catchtable.co.kr/ct/shop/hwaseol.isu
이곱착한고기 사당본점,"한식>육류,고기요리",서울특별시 동작구 동작대로3길 6,37.4784778,126.9811425,,
꿀때기곱창,"한식>곱창,막창,양",서울특별시 동작구 동작대로7길 84 1층,37.4777841,126.9781198,,
손선장 노량진점,한식>생선회,서울특별시 동작구 노들로 674 남3문 활어 17-19호/38-39호 손선장,37.5146821,126.9385812,,https://captainson.co.kr/
푸른바다,한식>생선회,"서울특별시 동작구 노들로 674 노량진수산시장 2층 활어 2-16, 2-17호",37.5148693,126.9368431,,http://instagram.com/chaehyoyoung
노량진수산시장 독도수산,한식>생선회,"서울특별시 동작구 노들로 674 노량진수산시장 1층 2호, 3호, 4호",37.5148693,126.9368431,,https://www.dokdofisheries.com/
홍대 육지,"한식>육류,고기요리",서울특별시 마포구 독막로3길 34 1F,37.5497425,126.9174273,,https://www.instagram.com/plzloveyookji
곱 마포직영점,"한식>곱창,막창,양",서울특별시 마포구 도화길 31-1,37.5410047,126.9493851,,https://www.instagram.com/gop.mapo/
을밀대 평양냉면,한식>냉면,서울특별시 마포구 숭문길 24,37.5474904,126.9455004,,
금성회관 합정본점,"한식>육류,고기요리",서울특별시 마포구 양화로6길 78 1층,37.5483547,126.9184193,,http://www.gumseong.com/
육몽 홍대본점,"한식>육류,고기요리",서울특별시 마포구 양화로16길 19 1-3층,37.5531962,126.9206933,,
우월소곱창 마포직영점,"한식>곱창,막창,양","서울특별시 마포구 마포대로 73 1층 111, 112, 113호",37.5422382,126.9489664,,http://pf.kakao.com/_uWUaG
숙성회 화도,한식>생선회,서울특별시 마포구 독막로6길 5 1층 숙성회 화도,37.5476934,126.9177010,,https://app.catchtable.co.kr/ct/shop/hwado
대포찜닭 신촌본점,한식>찜닭,서울특별시 서대문구 연세로 27-1 대성빌딩 3층,37.5581395,126.9367166,,https://www.instagram.com/daepo_zzimdak/
리정원 연희점,"한식>육류,고기요리",서울특별시 서대문구 연희맛로 4,37.5658550,126.9286242,,
리정원 신촌점,"한식>육류,고기요리",서울특별시 서대문구 명물길 59 1층 리정원,37.5591466,126.9393882,,
다성 대게킹크랩,한식>게요리,서울특별시 서대문구 신촌로11길 6,37.5569605,126.9330011,,
청송함흥냉면전문점,한식>냉면,서울특별시 서대문구 연희맛로 6,37.5659401,126.9287944,,
탐라도야지 교대역본점,"한식>육류,고기요리",서울특별시 서초구 서초대로50길 82 정원빌딩,37.4896170,127.0136468,,https://tamnapig.jalib.site/
진밀옥 교대직영점,"한식>육류,고기요리",서울특별시 서초구 서초대로50길 104 코랜드빌딩,37.4885548,127.0137972,,https://www.instagram.com/seocho_gamgyeok_sidae
우대옥 사당본점,한식>소고기구이,서울특별시 서초구 방배천로4길 15-17 1층,37.4787972,126.9833236,,https://www.instagram.com/woodaeok
옛골토성 청계산점,한식>돼지고기구이,서울특별시 서초구 청계산로 434,37.4304533,127.0709125,,https://blog.naver.com/tosunglife
삼육가 사당역직영점,"한식>육류,고기요리",서울특별시 서초구 방배천로 10 동화빌딩,37.4774221,126.9829227,,https://app.catchtable.co.kr/ct/shop/36ga_sd
진구곱창 강남역본점,"한식>곱창,막창,양",서울특별시 서초구 서초대로75길 37 1층 진구곱창,37.5007431,127.0248770,,https://blog.naver.com/kimjingu_
마루심 반포점,"한식>장어,먹장어요리",서울특별시 서초구 고무래로10길 10 청구빌딩 1층,37.5019278,127.0105785,,http://marusim.co.kr/
소문난성수감자탕,한식>감자탕,서울특별시 성동구 연무장길 45,37.5428370,127.0543870,,
싹쓰리곱창 성수본점,"한식>곱창,막창,양",서울특별시 성동구 뚝섬로 408 1층,37.5384690,127.0559049,,http://instagram.com/ssack.3
강남면옥 성수점,한식>냉면,서울특별시 성동구 성수일로 77 서울숲it밸리 1층 110호,37.5477087,127.0506378,,http://강남면옥.kr
금뚜껑,"한식>육류,고기요리",서울특별시 성북구 동소문로22길 64 1층,37.5902558,127.0186056,,https://app.catchtable.co.kr/ct/shop/goldttukkeong
밀탄 성신여대 본점,"한식>육류,고기요리",서울특별시 성북구 보문로34길 60 1층 밀탄,37.5908824,127.0187090,,
남해바다마차,한식>생선회,서울특별시 성북구 한천로78길 71 2층 남해바다마차,37.6135526,127.0649678,,https://pf.kakao.com/_gtPVxj
잠실장어와 한우,"한식>장어,먹장어요리",서울특별시 송파구 백제고분로7길 46 지하1층,37.5107247,127.0838553,,https://app.catchtable.co.kr/ct/shop/jamsiljanguhhanwoo
함경도찹쌀순대,"한식>순대,순댓국",서울특별시 송파구 송파대로28길 32,37.4948188,127.1213661,,
고도식 본점,"한식>육류,고기요리",서울특별시 송파구 백제고분로45길 28,37.5103652,127.1086207,,https://app.catchtable.co.kr/ct/shop/godosik_songpa
봉열소곱창 문정본점,"한식>곱창,막창,양",서울특별시 송파구 송파대로 111 202c동 148호 봉열소곱창,37.4808686,127.1245345,,https://app.catchtable.co.kr/ct/shop/bongyeolsogobchang
유천냉면 본점,한식>냉면,서울특별시 송파구 강동대로3길 22,37.5285094,127.1155717,,https://yoochun.co.kr/
서래냉면 롯데월드몰점,한식>냉면,서울특별시 송파구 올림픽로 300 롯데월드몰 5층,37.5134975,127.1045573,,https://www.instagram.com/seorae.jamsil/
가헌생갈비 목동본점,"한식>육류,고기요리",서울특별시 양천구 목동동로 222-3 1층,37.5254432,126.8721525,,
일미락 목동본점,한식>돼지고기구이,서울특별시 양천구 목동동로 226-16,37.5254115,126.8729620,,http://ilmirack.com/
탄연,한식>돼지고기구이,서울특별시 양천구 신정중앙로 94-1 1층 탄연,37.5262857,126.8622844,,https://www.instagram.com/tanyeon_mokdong/
오목교곱창 목동본점,"한식>곱창,막창,양",서울특별시 양천구 목동동로 226-13 1층 오목교곱창,37.5255779,126.8728589,,https://catchtable.co.kr/omokgyo_official
순백회관 목동본점,"한식>순대,순댓국","서울특별시 양천구 오목로 337-20 1층, 2층",37.5255374,126.8753622,,http://sunbaekhall.kr
오목집 목동본점,"한식>족발,보쌈",서울특별시 양천구 목동서로 155 목동파라곤 지하상가,37.5294394,126.8752936,,http://www.sgfco.kr/
쭈꾸미도사 오목교점,한식>주꾸미요리,서울특별시 양천구 오목로 313-3 1층,37.5254059,126.8723897,,https://www.instagram.com/jjuggumidosaㅡ_omokgyo
진주집,한식>국수,서울특별시 영등포구 국제금융로6길 33 지하 1층,37.5206924,126.9268251,,
브라더매운갈비찜 본점,"한식>육류,고기요리",서울특별시 영등포구 선유로 33 문래대림아파트 상가 101호 브라더매운갈비찜,37.5171757,126.8879018,,https://blog.naver.com/brothrt833
문래 골목집,한식>오리요리,서울특별시 영등포구 도림로125길 34 1층,37.5133865,126.8931051,,https://smartstore.naver.com/streetduck1990
또순이네집,한식>소고기구이,서울특별시 영등포구 선유로47길 16 오오1004빌딩,37.5357958,126.8953676,,
원조호수삼계탕,"한식>백숙,삼계탕",서울특별시 영등포구 도림로 276 원조호수삼계탕,37.5026579,126.9043894,,
영등포꽃삼,한식>돼지고기구이,서울특별시 영등포구 영중로4길 6 1층 영등포꽃삼,37.5171088,126.9070373,,https://www.instagram.com/flower_ydpork
몽탄,"한식>육류,고기요리",서울특별시 용산구 백범로99길 50,37.5360103,126.9722500,,http://www.mongtan.co.kr
남영돈,한식>돼지고기구이,서울특별시 용산구 한강대로80길 17 남영돈,37.5427593,126.9738012,,
도야집 용산본점,한식>돼지고기구이,서울특별시 용산구 한강대로52길 27 1층,37.5318105,126.9726360,,http://www.instagram.com/doyajib_
명동교자 이태원점,"한식>칼국수,만두",서울특별시 용산구 녹사평대로 136,37.5308785,126.9909658,,http://www.mdkj.co.kr
가야밀냉면해물칼국수 본점,한식>냉면,서울특별시 은평구 대서문길 36 북한산성상가 A동 106호,37.6558159,126.9476228,,https://app.catchtable.co.kr/ct/shop/gayamilmyun
옥탑방,한식>돼지고기구이,서울특별시 은평구 서오릉로 115 1층 옥탑방,37.6098069,126.9193074,,https://app.catchtable.co.kr/ct/shop/oktopbang?type=WAITING&currentSuggestionType=SHOP_NAME
송추가마골 은평1호점,"한식>육류,고기요리",서울특별시 은평구 북한산로 276 예강1,37.6542338,126.9400976,,https://blog.naver.com/scgmg
아우성황소곱창,"한식>곱창,막창,양",서울특별시 은평구 연서로29길 14-12 1층,37.6194020,126.9191954,,
제일곱창 연신내직영점,"한식>곱창,막창,양",서울특별시 은평구 연서로29길 20-11 1층 제일곱창,37.6197294,126.9185790,,https://catchtable.co.kr/gop_master
육회어때 응암점,"한식>육류,고기요리",서울특별시 은평구 응암로11길 15 1층,37.5888626,126.9150509,,https://blog.naver.com/howaboutyukhoe
두루올순대,"한식>순대,순댓국",서울특별시 은평구 은평로9길 13 캐스텔가든 두루올순대,37.6015173,126.9213909,,https://youtube.com/@duruall
횟집울릉도,한식>생선회,서울특별시 은평구 서오릉로 29-4 1층,37.6035220,126.9247950,,
은평어시장&amp;포장전문점,한식>생선회,서울특별시 은평구 응암로 169,37.5872796,126.9163180,,
대박수산,한식>생선회,서울특별시 은평구 연서로 247,37.6194414,126.9223743,,
구산역어촌어시장,한식>생선회,서울특별시 은평구 연서로 152,37.6124283,126.9177495,,
순대실록 대학로본점,"한식>순대,순댓국",서울특별시 종로구 동숭길 113 1층,37.5829946,127.0036997,,https://www.instagram.com/sundaesilrok/
토속촌 삼계탕,"한식>백숙,삼계탕",서울특별시 종로구 자하문로5길 5 토속촌,37.5776587,126.9716148,,http://www.tosokchon.co.kr/
진옥화할매원조닭한마리,한식>닭요리,서울특별시 종로구 종로40가길 18,37.5703500,127.0057389,,http://www.darkhanmari.co.kr/
잘빠진메밀 서촌 본점,한식>막국수,서울특별시 종로구 자하문로11길 4,37.5796715,126.9709994,,https://smartstore.naver.com/jalppajin-mill
잘빠진메밀 서순라길점,한식>막국수,서울특별시 종로구 율곡로8길 73 잘빠진메밀 서순라길점,37.5740448,126.9915043,,https://smartstore.naver.com/jalppajin-mill
진주육회 본점,"한식>육류,고기요리",서울특별시 종로구 동호로 403-22,37.5704396,127.0012606,,
은성횟집,한식>생선회,서울특별시 종로구 창경궁로 88,37.5703661,127.0001802,,
서촌계단집,"한식>해물,생선요리",서울특별시 종로구 자하문로1길 15,37.5764305,126.9714587,,
명동교자 본점,"한식>칼국수,만두",서울특별시 중구 명동10길 29,37.5625491,126.9856025,,http://www.mdkj.co.kr/
명동교자 1호점,"한식>칼국수,만두",서울특별시 중구 명동10길 10 명동교자,37.5634828,126.9851666,,http://www.mdkj.co.kr/
우래옥,한식>냉면,서울특별시 중구 창경궁로 62-29,37.5682697,126.9987029,,
진주회관,한식>국수,서울특별시 중구 세종대로11길 26,37.5623209,126.9745130,,
금성회관 서울시청직영점,"한식>육류,고기요리",서울특별시 중구 남대문로1길 30 1층,37.5623316,126.9774892,,https://www.instagram.com/gumseong5
화육계,한식>닭발,서울특별시 중구 을지로14길 21 1층,37.5653151,126.9921891,,http://instagram.com/hwk0806
오장동흥남집 본점,한식>냉면,서울특별시 중구 마른내로 114 흥남집,37.5643768,127.0005287,,http://www.오장동흥남집.com
오장동함흥냉면,한식>냉면,서울특별시 중구 마른내로 108 오장동함흥냉면,37.5643109,126.9999668,,
우기식당 바다 을지로점,한식>생선회,서울특별시 중구 충무로5길 18 1층 우기식당,37.5653584,126.9918100,,
VIP참치 서울시청점,한식>생선회,서울특별시 중구 세종대로22길 16 뉴서울호텔 2층,37.5679223,126.9781825,,https://smartstore.naver.com/viptuna_ko
임금돼지 태릉,"한식>육류,고기요리",서울특별시 중랑구 동일로 932 2단지상가 103호,37.6137228,127.0774620,,https://app.catchtable.co.kr/ct/shop/kingpork
꿀삼겹 본점,한식>돼지고기구이,서울특별시 중랑구 봉우재로 139,37.5932941,127.0883823,,https://www.instagram.com/honey_sam_gyeop
여봉닭발 중랑본점,한식>닭발,서울특별시 중랑구 망우로30길 40 여봉닭발,37.5916967,127.0750243,,https://blog.naver.com/yeobong1985
다함닭갈비 먹골역직영점,한식>닭갈비,서울특별시 중랑구 공릉로 32 1층 다함닭갈비,37.6134757,127.0781068,,https://linktr.ee/dahammeokgol
고기반햄반김치찌개&amp;김치찜 상봉본점,"한식>찌개,전골",서울특별시 중랑구 상봉로 76 1층 고기반햄반김치찌개&김치찜,37.5925912,127.0935624,,https://www.instagram.com/gobanhamban_sangbong
참치왕양승호,한식>생선회,서울특별시 중랑구 망우로 316 110.111호(상봉동.이지팰리스),37.5965986,127.0877021,,https://www.instagram.com/tunaking001__010_4100_1864/
왕새우직판장 상봉점,"한식>해물,생선요리",서울특별시 중랑구 봉우재로 118 1층,37.5924492,127.0861367,,http://www.kingshrimp.co.kr
진미평양냉면,한식>냉면,서울특별시 강남구 학동로 305-3,37.5161247,127.0360501,,
아쭈,한식>주꾸미요리,서울특별시 강남구 강남대로112길 15 다다무역빌딩 2층 아쭈,37.5056233,127.0256281,,http://bbsj.kr/아쭈
팔당족발,"한식>족발,보쌈",서울특별시 강남구 학동로45길 7 201호,37.5167428,127.0378859,,http://paldangjokbal.jalib.site/
신사만장어,"한식>장어,먹장어요리",서울특별시 강남구 도산대로1길 10,37.5174010,127.0201484,,https://blog.naver.com/mercigod0422
양재족발 참족,"한식>족발,보쌈",서울특별시 강남구 도곡로2길 14 1층,37.4887831,127.0331974,,https://tiktok.com/@freeman3030
뱅뱅막국수,한식>국수,"서울특별시 강남구 도곡로 112 서한빌딩, 1층",37.4897257,127.0327984,,https://youtube.com/@bangbang_tv1?si=JVxBRG4--LfVAX0Q
밀란국수 개포본점,한식>국수,서울특별시 강남구 개포로28길 4,37.4785571,127.0491151,,
목포명가 율현본점,한식>생선회,서울특별시 강남구 밤고개로23길 22,37.4738096,127.1085517,,
추오정남원추어탕 수서점,한식>추어탕,서울특별시 강남구 밤고개로14길 13,37.4814070,127.1039800,,
보쌈애칼국수 강남자곡본점,"한식>족발,보쌈",서울특별시 강남구 자곡로 172 강남엑슬루프라임 1층 116호,37.4734580,127.1026386,,
백제추어탕 본점,한식>추어탕,서울특별시 강동구 양재대로 1406,37.5314616,127.1381672,,https://www.youtube.com/watch?v=gyh8pVk35OA
토속한방삼계탕,"한식>백숙,삼계탕",서울특별시 강동구 천호대로 1152 105동 101호,37.5335310,127.1392420,,
숯불갈비 화랑골,"한식>육류,고기요리",서울특별시 강동구 고덕로 429-1 1층,37.5577873,127.1735124,,https://app.catchtable.co.kr/ct/shop/hwaranggol
광선집 까치산역 본점,"한식>육류,고기요리",서울특별시 강서구 곰달래로 149 소망빌딩 1층,37.5308509,126.8496922,,https://app.catchtable.co.kr/ct/shop/gwangseonj_B.J
윤가네 역전오리 마곡발산점,한식>오리요리,서울특별시 강서구 강서로56길 24,37.5593853,126.8400777,,https://www.instagram.com/yeokjeon52
고향옥얼큰순대국 가양점,"한식>순대,순댓국",서울특별시 강서구 양천로 401 A동 114호 고향옥얼큰순대국,37.5653099,126.8482619,,http://www.instagram.com/gohyangok._.b
서울꽃삼 발산본점,한식>돼지고기구이,서울특별시 강서구 강서로52길 16 1층 서울꽃삼,37.5576930,126.8389438,,http://instagram.com/seoul_kkotsam/
흥한수산,한식>생선회,서울특별시 강서구 발산로 24 강서농수산물시장 B-24호,37.5527985,126.8187468,,
가포수산,한식>생선회,"서울특별시 강서구 발산로 24 수협직판장 C-2,3,4",37.5528090,126.8187452,,https://www.instagram.com/gapo_crab?igsh=MXVoMjFzc2VxYXRyeQ==
신갯마을,한식>생선회,서울특별시 강서구 발산로 24 수협 2층,37.5528089,126.8187451,,
메이필드호텔 봉래헌,한식>한정식,서울특별시 강서구 방화대로 94 메이필드호텔 봉래헌,37.5478973,126.8179710,,https://app.catchtable.co.kr/ct/shop/bongraeheon
사당역 힘찬정육식당,"한식>육류,고기요리",서울특별시 관악구 남현1길 58 1층 사당역 힘찬정육식당,37.4757841,126.9804850,,
복돈이 부추삼겹살,한식>돼지고기구이,서울특별시 관악구 남현1길 68-14 1층,37.4751363,126.9812139,,
우월소곱창 신도림본점,"한식>곱창,막창,양",서울특별시 구로구 경인로 631 1층,37.5073619,126.8853732,,http://pf.kakao.com/_MxdhxmK
신도림 이도식당,한식>닭갈비,서울특별시 구로구 경인로 661 신도림1차푸르지오 2층,37.5092078,126.8874977,,https://www.instagram.com/yido_sikdang
송림가,한식>한정식,서울특별시 구로구 경인로 398 송림가,37.4970259,126.8645470,,https://smartstore.naver.com/songlimga
목돈72 개봉직영점,한식>돼지고기구이,"서울특별시 구로구 개봉로20길 54 1층, 2층",37.4934421,126.8574397,,
할머니추어탕,한식>추어탕,서울특별시 구로구 개봉로19길 39 개봉동청송빌딩,37.4935679,126.8559104,,
갈비도락 구로항동점,"한식>육류,고기요리","서울특별시 구로구 서해안로 2070 2층, 3층",37.4780028,126.8211687,,
수목원국수,한식>국수,서울특별시 구로구 연동로 255 1층,37.4834358,126.8220885,,https://www.instagram.com/mjkim5000?igsh=MTFyem50dmt0YmRsOA==
개화,한식>생선회,서울특별시 구로구 디지털로27길 83 개화,37.4842296,126.8894023,,https://www.instagram.com/gaehwa_guro/
반야비빔밥 세이브존노원점,한식>비빔밥,서울특별시 노원구 한글비석로 57,37.6366167,127.0689293,,
닭한마리 공릉본점,한식>닭요리,서울특별시 노원구 동일로 1020,37.6212520,127.0747069,,https://seodeok.co.kr
황금정원,한식>쌈밥,서울특별시 도봉구 방학로 312 황금정원,37.6629591,127.0177493,,
옹기꽃게장,한식>게요리,서울특별시 도봉구 도봉산4가길 14-9,37.6885138,127.0412921,,
성천 막국수,한식>막국수,서울특별시 동대문구 답십리로48나길 2,37.5699005,127.0577734,,
장안동 먹깨비 간장게장 해물아구찜,한식>게요리,서울특별시 동대문구 장한로 92 1층,37.5687090,127.0697084,,https://smartstore.naver.com/meokkkae_b
할머니냉면,한식>냉면,서울특별시 동대문구 왕산로37길 53,37.5823366,127.0436903,,
안동집 손칼국시,"한식>칼국수,만두",서울특별시 동대문구 고산자로36길 3 신관 지하1층,37.5790378,127.0391428,,
회기왕갈비탕,한식>갈비탕,서울특별시 동대문구 이문로 54 1층 회기왕갈비탕,37.5920924,127.0575168,,https://www.instagram.com/galbitang_1028
꽃피는고기,"한식>육류,고기요리",서울특별시 마포구 와우산로13길 49-3 1층,37.5485342,126.9210255,,
고고갈비 홍대점,"한식>육류,고기요리",서울특별시 마포구 독막로 77 1층,37.5479355,126.9221025,,https://www.instagram.com/gogogalbi77
찌개의정석 마포성산동점,"한식>백반,가정식",서울특별시 마포구 월드컵북로23길 9,37.5645025,126.9117889,,
우리바다수산,한식>생선회,서울특별시 마포구 월드컵로 102,37.5577265,126.9089111,,
사위식당 공덕점,"한식>곱창,막창,양",서울특별시 마포구 마포대로 109 지하1층 B121호,37.5446449,126.9504094,,https://app.catchtable.co.kr/ct/shop/sawee4242
황금콩밭,한식>두부요리,서울특별시 마포구 마포대로16길 9,37.5509597,126.9567133,,https://app.catchtable.co.kr/ct/shop/goldcong?from=share&type=VISIT_RESERVATION
곱창파는고깃집 공덕본점,"한식>육류,고기요리",서울특별시 마포구 마포대로 173-14 마포센텀슬로우스퀘어 401호,37.5509462,126.9536301,,https://app.catchtable.co.kr/ct/shop/gpg201709?from=share&type=WAITING
도화곱창,"한식>곱창,막창,양",서울특별시 마포구 새창로2길 13 1층,37.5413816,126.9494134,,https://app.catchtable.co.kr/ct/shop/dohwagopchang
고도식 마포점,"한식>육류,고기요리",서울특별시 마포구 마포대로1길 16,37.5396681,126.9431616,,https://app.catchtable.co.kr/ct/shop/godosik_mapo
모연 마포본점,한식>소고기구이,서울특별시 마포구 토정로 318 영우빌딩 1층 모연 마포본점,37.5395090,126.9438139,,https://g.co/kgs/iv8qBN
청기와타운 마포점,"한식>육류,고기요리",서울특별시 마포구 토정로 296 1층,37.5406904,126.9421107,,https://www.instagram.com/c_town.mapo?igsh=MXFmdDBlam4ycWZseA%3D%3D&utm_source=qr
원조 조박집 본관,"한식>육류,고기요리",서울특별시 마포구 토정로 313-1 1층동,37.5399382,126.9438630,,https://app.catchtable.co.kr/ct/shop/jobakzib_official
연희동칼국수 본점,"한식>칼국수,만두",서울특별시 서대문구 연희맛로 37,37.5681839,126.9307635,,
촌놈,한식>돼지고기구이,서울특별시 종로구 대학로8가길 48,37.5829574,127.0023479,,https://blog.naver.com/chssha1029
어머니와 아들,한식>닭요리,서울특별시 서대문구 홍은중앙로 100-1 1층 어머니와 아들,37.5993647,126.9486875,,https://www.instagram.com/sanghoon_kwon84
포방터쭈꾸미,한식>주꾸미요리,서울특별시 서대문구 홍은중앙로 100-35 1층,37.5993456,126.9488913,,https://smartstore.naver.com/phobangteojjukumi
모래내설농탕본점,"한식>곰탕,설렁탕",서울특별시 서대문구 모래내로 271,37.5771319,126.9280632,,
산천마루,"한식>백숙,삼계탕",서울특별시 서대문구 세검정로1길 21,37.5925590,126.9428649,,
맛있는칼국수,"한식>칼국수,만두",서울특별시 서대문구 불광천길 150 1층,37.5819180,126.9089080,,
정동추어탕,한식>추어탕,서울특별시 중구 새문안로 30 정동 추어탕,37.5678784,126.9690209,,
삼산회관 양재본점,"한식>육류,고기요리",서울특별시 서초구 남부순환로356길 39 1층 101호 삼산회관 양재본점,37.4831936,127.0383963,,https://www.youtube.com/@samsan_yangjae
부안애서 청계본점,한식>돼지고기구이,서울특별시 서초구 청계산로 223,37.4457382,127.0574743,,https://blog.naver.com/buanaes
한남동감자탕 신금호역 직영점,한식>감자탕,서울특별시 성동구 무수막길 95 솔베이그빌딩 지하1층,37.5541956,127.0198994,,
한우마을,한식>소고기구이,서울특별시 성동구 고산자로24길 11 진아빌딩2층 한우마을,37.5700937,127.0386988,,https://www.instagram.com/majangdong_hanwoomeaul/
인생한우,한식>소고기구이,서울특별시 성동구 마장로31길 43 2층,37.5701572,127.0382183,,
갈비명가이상 돈암본관,"한식>육류,고기요리",서울특별시 성북구 정릉로 364,37.6015310,127.0236114,,https://www.instagram.com/esang1982
맛찬들왕소금구이 길음점,"한식>육류,고기요리","서울특별시 성북구 길음로 11 107, 108, 112, 113, 114, 115호",37.6035370,127.0229927,,https://matwang-gileum.jalib.site/
제주고깃집 성북구청점,한식>돼지고기구이,서울특별시 성북구 보문로 144 1층,37.5879008,127.0182789,,
석호갈비 신설동본점,한식>소고기구이,서울특별시 성북구 보문로 42 1층,37.5794124,127.0227823,,https://www.instagram.com/_seokhogalbi_
갈치전문식당,한식>생선구이,서울특별시 성북구 종암로36길 52 아납아파트 상가 102호,37.6059714,127.0343861,,
주은감자탕,한식>감자탕,서울특별시 송파구 삼학사로 71,37.5036876,127.0968527,,
임금돼지 잠실,"한식>육류,고기요리",서울특별시 송파구 송파대로 471 1층 101호,37.5080991,127.1041092,,https://www.instagram.com/kingpork_offcial
황도바지락칼국수,"한식>칼국수,만두",서울특별시 송파구 백제고분로 358,37.5042987,127.1060035,,
개나리아구찜 본점,"한식>아귀찜,해물찜",서울특별시 송파구 오금로15길 7-8 1층,37.5126511,127.1090725,,https://www.instagram.com/gaenariagu_headoffice/
표현식당 방이점,"한식>육류,고기요리",서울특별시 송파구 올림픽로32길 18-22 지상1층,37.5140497,127.1081799,,https://app.catchtable.co.kr/ct/shop/Pyohyeon2020
우대포 위례본점,"한식>육류,고기요리",서울특별시 송파구 위례광장로 120 155호,37.4744912,127.1417064,,
당산오돌 영등포본점,"한식>육류,고기요리",서울특별시 영등포구 국회대로37길 6 1층,37.5275599,126.8997656,,https://blog.naver.com/skill8114
곱 문래본점,"한식>곱창,막창,양",서울특별시 영등포구 당산로 34 1층 118호,37.5175841,126.8963817,,https://blog.naver.com/restaurant_gop
천수냉면 본점,한식>냉면,서울특별시 영등포구 가마산로71길 8 1층,37.5066025,126.9094954,,https://www.해장은천수냉면.com/default/
신풍낙지,한식>낙지요리,서울특별시 영등포구 대림로 220,37.5005489,126.8979414,,
계단칼국수 강남성심병원본점,"한식>칼국수,만두",서울특별시 영등포구 시흥대로187길 11 2층,37.4926006,126.9078447,,https://www.instagram.com/gyedan_kalguksu?igsh=NXRkc2hqb21wdmN1
삼거리먼지막순대국,"한식>순대,순댓국",서울특별시 영등포구 시흥대로185길 11,37.4917462,126.9072201,,http://itvplus.co.kr/home6/sam/
강강술래 당산점,"한식>육류,고기요리",서울특별시 영등포구 선유로 251 2층,37.5351457,126.8968369,,https://sullai.com/
일미집,한식>감자탕,서울특별시 용산구 후암로 1-1,37.5461499,126.9782749,,https://m.shopping.naver.com/fresh/localfood/stores/100754990/products/4931260768?NaPm=ct%3Dklt82492%7Cci%3Dshoppingwindow%7Ctr%3Dmyz%7Chk%3Dc83efaf1ee49112feb939543d40da38f8f39150e%7Ctrx%3D
열정도고깃집,한식>돼지고기구이,서울특별시 용산구 백범로87길 55 열정도고깃집,37.5396892,126.9694631,,https://catchtable.co.kr/yeoljungdogogi
열정도쭈꾸미,한식>주꾸미요리,서울특별시 용산구 백범로87길 40 열정도쭈꾸미,37.5390559,126.9689468,,https://app.catchtable.co.kr/ct/shop/passionchukkumi
제주마실,"한식>육류,고기요리",서울특별시 은평구 응암로13길 11-10 1층,37.5890431,126.9164673,,https://www.instagram.com/jejumasil_
가원,"한식>육류,고기요리",서울특별시 은평구 진흥로1길 34 1층,37.6034421,126.9186010,,https://www.instagram.com/gawon_0605_
봉평옹심이메밀칼국수,"한식>칼국수,만두",서울특별시 은평구 연서로 247 1층,37.6197690,126.9219984,,
두꺼비집,한식>오징어요리,서울특별시 은평구 연서로28길 5 두꺼비집,37.6181357,126.9209815,,https://www.instagram.com/wonjo.squid
대성이네,한식>찜닭,서울특별시 은평구 은평로13길 11 1층 대성이네,37.6022680,126.9253340,,https://blog.naver.com/yoon1833
황생가칼국수,"한식>칼국수,만두",서울특별시 종로구 북촌로5길 78,37.5801317,126.9806900,,http://황생가칼국수.com
창신동매운족발,"한식>족발,보쌈",서울특별시 종로구 종로51길 23 1층 창신동매운족발,37.5730483,127.0115220,,
고기하다,"한식>육류,고기요리",서울특별시 종로구 대학로 133-5 고기하다,37.5829527,127.0013669,,
삼겹살 전문점 대통령,한식>돼지고기구이,서울특별시 중구 장충단로 249-24,37.5674462,127.0076734,,
필동면옥,한식>냉면,서울특별시 중구 서애로 26,37.5603727,126.9969235,,
중앙갈치식당,"한식>해물,생선요리",서울특별시 중구 남대문시장길 22-12,37.5597919,126.9770794,,http://cityfood.co.kr/h9/jung-angsigdang
무교동북어국집,한식>해장국,서울특별시 중구 을지로1길 38,37.5677548,126.9798583,,
남포면옥,한식>냉면,서울특별시 중구 을지로3길 24,37.5671396,126.9815998,,
전설의우대갈비 서울시청직영점,"한식>육류,고기요리",서울특별시 중구 남대문로9길 40 2층 206~209호,37.5669879,126.9804297,,https://www.instagram.com/udaegalbioflegend
금돼지식당,한식>돼지고기구이,서울특별시 중구 다산로 149 1층,37.5570932,127.0116976,,https://gold-pig.com/
약수동해물텀벙,"한식>아귀찜,해물찜",서울특별시 중구 다산로10길 11,37.5535718,127.0107340,,https://smartstore.naver.com/ysd_haemulteombeong/products/11610351885
옥경이네건생선,"한식>해물,생선요리",서울특별시 중구 퇴계로85길 7,37.5661034,127.0195515,,
신당육,"한식>육류,고기요리","서울특별시 중구 다산로46길 36 2층, 3층, 4층",37.5664523,127.0182824,,https://www.instagram.com/shindang6
깃대봉냉면,한식>냉면,서울특별시 중구 청계천로 400 베네치아메가몰 2층 2038호,37.5714179,127.0225185,,
원할머니보쌈족발 본점,"한식>족발,보쌈",서울특별시 중구 난계로 201 2층,37.5696505,127.0231752,,https://www.instagram.com/wongrandma.origin/
한동길뼈다귀감자탕 신내본점,한식>감자탕,"서울특별시 중랑구 신내로 225 디아뜨갤러리 153,154,155호",37.6168007,127.0919919,,
다몽집 신논현본점,"한식>육류,고기요리",서울특별시 강남구 강남대로100길 13 지하1층/2층 다몽집,37.5017942,127.0271567,,https://blog.naver.com/jhoon0729
원조해장촌 뼈구이한판 감자탕 선릉역점,한식>감자탕,서울특별시 강남구 선릉로86길 28 지상2층,37.5036221,127.0520712,,https://www.instagram.com/Original_Haejangchon1
농민백암순대 본점,"한식>순대,순댓국",서울특별시 강남구 선릉로86길 40-4,37.5037000,127.0530139,,
육미안 강남점,한식>소고기구이,서울특별시 강남구 강남대로106길 9 1층,37.5029887,127.0263989,,https://app.catchtable.co.kr/ct/shop/yukmian_gangnam
새돌집 논현본점,"한식>육류,고기요리",서울특별시 강남구 언주로148길 14 동림상가 나동 108호,37.5207137,127.0363106,,https://catchtable.co.kr/samwha1972
신동궁 감자탕 뼈숯불구이 선릉직영점,한식>감자탕,서울특별시 강남구 선릉로86길 39 1층 신동궁감자탕 뼈숯불구이,37.5040863,127.0529113,,
신동궁감자탕 뼈숯불구이 역삼직영점,한식>감자탕,서울특별시 강남구 테헤란로10길 21 1층 신동궁감자탕뼈숯불구이,37.4978882,127.0328327,,
탕탕집 논현본점,한식>해장국,서울특별시 강남구 학동로4길 12,37.5106522,127.0230780,,
하동관 코엑스몰직영점,"한식>곰탕,설렁탕",서울특별시 강남구 영동대로 513 코엑스몰 B1 J101,37.5112552,127.0597543,,
압구정제주집,"한식>육류,고기요리",서울특별시 강남구 논현로152길 36 1층,37.5215405,127.0311181,,https://압구정제주집.com
농민백암순대,"한식>순대,순댓국",서울특별시 강남구 역삼로3길 20-4,37.4949366,127.0314467,,
더식당,한식>주꾸미요리,서울특별시 강동구 천호대로157길 24 2층,37.5387698,127.1275492,,
시집그릴하우스,한식>돼지고기구이,"서울특별시 강동구 천호대로158길 15-8 지하1층, 1층",37.5364109,127.1265996,,
돼봉삼겹살 천호점,한식>돼지고기구이,서울특별시 강동구 천호대로157길 52 1층 돼봉삼겹살,37.5398977,127.1279848,,https://app.catchtable.co.kr/ct/shop/dwaebongcheonho
곱창폭식 천호점,"한식>곱창,막창,양",서울특별시 강동구 천호대로157길 19 1층,37.5389002,127.1270513,,https://www.instagram.com/gobchangpoksik_cheonho/
돈사돈 강동직영점,한식>돼지고기구이,서울특별시 강동구 올림픽로 675 1층,37.5418358,127.1242832,,
진정한족발 강동천호본점,"한식>족발,보쌈",서울특별시 강동구 천호옛14길 10 101호 진정한족발,37.5360875,127.1260892,,https://youtube.com/watch?v=yz8g31qBstE
명성왕족발,"한식>족발,보쌈",서울특별시 강동구 상암로11길 17 암사시장내 럭키슈퍼 맞은편,37.5505930,127.1287108,,
몽땅족발,"한식>족발,보쌈",서울특별시 강동구 구천면로24길 20-16 몽땅족발,37.5401711,127.1251813,,
충무보쌈족발,"한식>족발,보쌈",서울특별시 강동구 양재대로111길 7,37.5370461,127.1390586,,
진밀옥 강동직영점,"한식>칼국수,만두",서울특별시 강동구 천호대로 1134 1층,37.5340738,127.1372261,,
황도바지락칼국수 길동본점,"한식>칼국수,만두",서울특별시 강동구 천호대로 1256 황도바지락칼국수 길동본점,37.5368500,127.1501499,,
삼끼막창 천호본점,"한식>곱창,막창,양",서울특별시 강동구 올림픽로77길 10 1층 삼끼막창,37.5428614,127.1243935,,https://app.catchtable.co.kr/ct/shop/samkki_cheonho
세광양대창 천호점,"한식>곱창,막창,양",서울특별시 강동구 천호대로157길 34,37.5392084,127.1277171,,https://www.instagram.com/sekwang_official/
가마솥순대국밥 강동역점,"한식>순대,순댓국",서울특별시 강동구 천호대로 1107 1층 104호,37.5354544,127.1348964,,https://blog.naver.com/kamasot_gukbab
한촌설렁탕 강동점,"한식>곰탕,설렁탕",서울특별시 강동구 진황도로 110 1층,37.5349908,127.1381098,,
함흥본가면옥 길동사거리점,한식>냉면,서울특별시 강동구 양재대로 1428 성림빌딩,37.5333332,127.1387199,,
함경면옥 본점,한식>냉면,서울특별시 강동구 강동대로 215 삼안빌딩,37.5235769,127.1300329,,
봉메밀,한식>막국수,서울특별시 강동구 천호대로203길 10,37.5384954,127.1519559,,
청년감자탕 명일역점,한식>감자탕,서울특별시 강동구 상암로47길 90 1층,37.5503874,127.1446923,,
양평해장국 고덕역점,한식>해장국,서울특별시 강동구 동남로73길 31 1층 양평해장국 고덕역점,37.5528478,127.1543664,,
푸주옥설렁탕,"한식>곰탕,설렁탕",서울특별시 강동구 강동대로 209,37.5238690,127.1297570,,
우미향가,"한식>육류,고기요리",서울특별시 강동구 풍성로 204 1층,37.5292039,127.1344084,,https://www.instagram.com/woomi.official/
한촌설렁탕 강동명일점,"한식>곰탕,설렁탕",서울특별시 강동구 동남로 881 1층,37.5521897,127.1560009,,http://www.hanchon.kr/new/
마시쏘부대찌개 길동점,"한식>찌개,전골",서울특별시 강동구 진황도로47길 73 1층,37.5378406,127.1405426,,
경송 천호본점,"한식>육류,고기요리",서울특별시 강동구 천호대로159길 22 1층 경송,37.5385627,127.1279664,,https://app.catchtable.co.kr/ct/shop/kyungsong
깃든,"한식>육류,고기요리",서울특별시 강북구 월계로7나길 46-5 1층 깃든,37.6132653,127.0316888,,https://app.catchtable.co.kr/ct/shop/gitdeun_bang
장수마늘보쌈,"한식>족발,보쌈",서울특별시 강북구 한천로 960 1층 장수마늘보쌈,37.6356597,127.0338379,,
대민족,"한식>족발,보쌈",서울특별시 강북구 도봉로69길 16,37.6310051,127.0225878,,
무안왕족발 수유재래시장 본점,"한식>족발,보쌈",서울특별시 강북구 도봉로71길 16 무안왕족발 수유재래시장 본점,37.6314893,127.0231424,,
할머니왕족발,"한식>족발,보쌈",서울특별시 강북구 노해로8가길 12,37.6386100,127.0237434,,https://blog.naver.com/cocort
함지칼국수 본점,"한식>칼국수,만두",서울특별시 강북구 솔매로 105 1층,37.6257487,127.0239000,,
순곱이네 미아점,"한식>찌개,전골",서울특별시 강북구 도봉로10가길 15 2층,37.6130085,127.0313661,,https://www.instagram.com/mia_hoegwan_2nd/
원조할매곱창,"한식>곱창,막창,양",서울특별시 강북구 월계로3길 68,37.6126462,127.0315000,,https://smartstore.naver.com/wonjohalmaegopechang
시래기화덕생선구이,한식>국밥,서울특별시 강북구 4.19로 61-1 1층,37.6460421,127.0077917,,
벼랑순대국 본점,"한식>순대,순댓국",서울특별시 강북구 한천로 924,37.6343190,127.0372279,,
진호횟집 수유본점,한식>생선회,서울특별시 강북구 도봉로98길 33 진호횟집,37.6412617,127.0314406,,https://app.catchtable.co.kr/ct/shop/jinhohoi
조개일번지,한식>조개요리,서울특별시 강북구 도봉로8길 37 1층,37.6121233,127.0321692,,https://blog.naver.com/jogae1bunji
수유손칼국수,"한식>칼국수,만두",서울특별시 강북구 도봉로101길 45,37.6439712,127.0283701,,
조마루감자탕 미아점,한식>감자탕,서울특별시 강북구 솔샘로 332,37.6169942,127.0290689,,
조선감저,한식>감자탕,서울특별시 강북구 솔샘로 220 1층,37.6199241,127.0170102,,https://www.instagram.com/gamjatang_chosun
속초할머니감자탕본점,한식>감자탕,서울특별시 강북구 인수봉로58길 4-11,37.6368223,127.0133453,,
부잣집설렁탕,"한식>곰탕,설렁탕",서울특별시 강북구 도봉로8길 9,37.6128369,127.0308262,,
신의주찹쌀순대 우이솔밭공원점,"한식>순대,순댓국",서울특별시 강북구 삼양로 573 1층 신의주찹쌀순대 우이솔밭공원점,37.6540627,127.0126047,,
서래옥설렁탕,"한식>곰탕,설렁탕",서울특별시 강북구 수유로 11 서래옥설렁탕,37.6320424,127.0182033,,
육대장 수유점,한식>국밥,서울특별시 강북구 4.19로 51 1층,37.6465887,127.0088257,,https://www.yukdaejang.com
선정설렁탕 미아점,"한식>곰탕,설렁탕",서울특별시 강북구 솔샘로67길 142,37.6233821,127.0265375,,
의정부부대찌개,"한식>찌개,전골",서울특별시 강북구 도봉로6길 12 1층,37.6125100,127.0308206,,https://www.instagram.com/uijungbudae_mia?igsh=YmpucnEyNGpqb2dn&utm_source=qr
신의주부대찌개,"한식>찌개,전골",서울특별시 강북구 한천로131길 7,37.6387531,127.0278897,,
땅스부대찌개 수유점,"한식>찌개,전골",서울특별시 강북구 도봉로 261,37.6315607,127.0234788,,https://www.youtube.com/@tsbudae_official
육육곱창 수유점,"한식>곱창,막창,양",서울특별시 강북구 도봉로87길 40 103호,37.6391665,127.0236538,,https://www.instagram.com/66gobchang/
일품한우 마곡본점,"한식>육류,고기요리",서울특별시 강서구 마곡중앙로 161-22 2층,37.5686383,126.8257851,,https://www.instagram.com/ilpumhanu_magok/
송쭈집 마곡,한식>주꾸미요리,서울특별시 강서구 마곡서로 158 센트럴타워2차 2층 송쭈집 마곡나루점,37.5680891,126.8254241,,http://instagram.com/songjjuzip_magok
만배아리랑보쌈 본점,"한식>족발,보쌈",서울특별시 강서구 화곡로 131 1층,37.5408873,126.8362651,,https://manbaefood.com/index
만배아리랑보쌈 등촌본점,"한식>족발,보쌈",서울특별시 강서구 등촌로51길 17 1층,37.5488955,126.8623998,,
청년족발 마곡본점,"한식>족발,보쌈","서울특별시 강서구 마곡중앙4로 22 A동 101,102호(파인스퀘어)",37.5585471,126.8290977,,
하영족발과보쌈 등촌본점,"한식>족발,보쌈",서울특별시 강서구 화곡로64길 82 1층 하영족발과보쌈,37.5557293,126.8573873,,https://www.instagram.com/hayeong_jbk
사위식당 마곡점,"한식>곱창,막창,양",서울특별시 강서구 공항대로 227 1층 112호,37.5596535,126.8329448,,https://www.facebook.com/Saweerestaurant
벽돌곱창 마곡본점,"한식>곱창,막창,양",서울특별시 강서구 마곡중앙6로 93 열린프라자 115호,37.5601356,126.8376979,,https://www.벽돌곱창.com
세광양대창 발산점,"한식>곱창,막창,양",서울특별시 강서구 마곡중앙6로 89 1동 1층,37.5600358,126.8373552,,https://www.instagram.com/sekwang__balsan/
왕세숫대야냉면 행복을파는집,한식>냉면,서울특별시 강서구 공항대로 423,37.5554914,126.8543561,,
목로,"한식>육류,고기요리","서울특별시 강서구 마곡중앙6로 42 사이언스타 2층 209호, 210호 목로",37.5601077,126.8320824,,
등촌 최월선칼국수,"한식>칼국수,만두",서울특별시 강서구 화곡로64길 68,37.5560116,126.8566894,,
신촌감자탕해물뼈찜,한식>감자탕,서울특별시 강서구 강서로 375,37.5591868,126.8380891,,
본스튜감자탕 등촌점,한식>감자탕,서울특별시 강서구 등촌로 219,37.5493548,126.8634276,,
명가원설농탕 화곡점,"한식>곰탕,설렁탕",서울특별시 강서구 강서로 195,37.5435078,126.8382035,,http://www.jungsungdam.com
원조나주곰탕,"한식>곰탕,설렁탕",서울특별시 강서구 양천로14길 10,37.5726304,126.8100807,,
부대찌개대사관 마곡직영점,"한식>찌개,전골",서울특별시 강서구 마곡중앙6로 11 1층 124~126호,37.5608366,126.8286208,,https://부대찌개대사관.kr/
송탄진대광부대찌개,"한식>찌개,전골","서울특별시 강서구 공항대로 227 1층 115호, 116호",37.5596552,126.8327751,,https://www.instagram.com/jindaekwangmagok
오뎅식당 롯데몰 김포공항점,"한식>찌개,전골",서울특별시 강서구 하늘길 38 롯데몰 김포공항점 GF,37.5640497,126.8032261,,
그집돼지 본점,한식>돼지고기구이,서울특별시 관악구 봉천로 467 1층 그집돼지,37.4824853,126.9519562,,https://www.instagram.com/pighouse___/
정담은보쌈 신림점,"한식>족발,보쌈","서울특별시 관악구 남부순환로 1661 하나빌딩 2, 3, 4층",37.4852304,126.9353860,,http://jungdamun.com/wordpress/
나래족발,"한식>족발,보쌈",서울특별시 관악구 봉천로 465 1층 나래족발,37.4825044,126.9517119,,
문성골족발집,"한식>족발,보쌈",서울특별시 관악구 신원로 16 영신상가,37.4808394,126.9278798,,
이대감명품막창 서울대본점,"한식>곱창,막창,양",서울특별시 관악구 장군봉1길 46,37.4815965,126.9426212,,https://blog.naver.com/leedaegam114
소문난중앙칼국수,"한식>칼국수,만두","서울특별시 관악구 남부순환로 1940 102, 103, 105, 106호",37.4765304,126.9643550,,
명동칼국수샤브샤브 신림역점,"한식>칼국수,만두",서울특별시 관악구 신림로 330 타임스트림 8층,37.4837691,126.9301568,,
낙성대우리한우소곱창,"한식>곱창,막창,양",서울특별시 관악구 인헌길 15 1층,37.4748960,126.9670010,,
또순이원조순대 본점,"한식>순대,순댓국",서울특별시 관악구 신림로59길 14,37.4833160,126.9286503,,https://m.smartstore.naver.com/sillimdongddosooni
전주익산,"한식>순대,순댓국","서울특별시 관악구 신림로59길 14 원조민속순대타운 원빌딩3층 302호, 304호 전주익산",37.4832713,126.9288008,,https://smartstore.naver.com/jeonju_iksan302/products/6080192113
신림황소곱창,"한식>곱창,막창,양",서울특별시 관악구 신림로65길 42,37.4848658,126.9270651,,https://www.instagram.com/sillim.gopchang
전라도시네마,"한식>순대,순댓국",서울특별시 관악구 신림로59길 14 원빌딩 원조민속순대타운 3층 307호,37.4833092,126.9287770,,https://cafe.naver.com/aabb6459
정남옥 서울대입구점,"한식>순대,순댓국",서울특별시 관악구 관악로 148 지층,37.4785394,126.9525926,,
막불감동,한식>냉면,서울특별시 관악구 남부순환로 1599,37.4842899,126.9282701,,
고기굽는사람들 샤로수길본점,"한식>육류,고기요리",서울특별시 관악구 관악로14길 70 효림빌딩 1층 106호,37.4782651,126.9564700,,https://blog.naver.com/sbw1101
우담정,한식>소고기구이,서울특별시 관악구 남부순환로 2082-25 4층,37.4760614,126.9810098,,https://www.instagram.com/woodamjeong_seoul?igsh=dHk2bmtscnJmbXd6
바다가내손아귀,"한식>아귀찜,해물찜",서울특별시 관악구 봉천로 382-1 1층,37.4830053,126.9423127,,https://www.instagram.com/badaga_bongcheon
박막례청진동해장국,한식>해장국,서울특별시 관악구 관악로 105,37.4745903,126.9526746,,
평안도식당 24시 신림점,한식>국밥,서울특별시 관악구 남부순환로 1535 1층,37.4832822,126.9210982,,https://baemin.me/B4iyqxfBi
조마루감자탕 구로디지털1호점,한식>감자탕,서울특별시 관악구 조원로 8,37.4833807,126.9030902,,http://www.jomaru.co.kr/
아우네장터순대국,"한식>순대,순댓국",서울특별시 관악구 봉천로 490,37.4815219,126.9541116,,
전준수 명품청기와감자탕 난곡본점,한식>감자탕,서울특별시 관악구 난곡로 112 대운빌딩1층,37.4653526,126.9199342,,http://blog.kbmyshop.com/%EB%AA%85%ED%92%88%EC%B2%AD%EA%B8%B0%EC%99%80%EB%BC%88%EA%B0%90%EC%9E%90%ED%83%95
고기박사 신림점,"한식>육류,고기요리",서울특별시 관악구 남부순환로 1633 1층 고기박사,37.4847841,126.9321635,,
우리설렁탕,"한식>곰탕,설렁탕",서울특별시 관악구 신림로 190,37.4743513,126.9364125,,
구수옥설렁탕,"한식>곰탕,설렁탕",서울특별시 관악구 남부순환로 1674 1층 구수옥설렁탕,37.4843935,126.9365231,,
돌솥밥추어탕 봉천점,한식>추어탕,서울특별시 관악구 봉천로 375,37.4836072,126.9417656,,
해방촌 부대찌개 타임스트림점,"한식>찌개,전골",서울특별시 관악구 신림로 330 9층,37.4838356,126.9301735,,https://www.instagram.com/haebangchon_budajjigae
정숙성 샤로수길점,"한식>육류,고기요리",서울특별시 관악구 남부순환로226길 31 1층 정숙성,37.4791772,126.9538301,,https://app.catchtable.co.kr/ct/shop/jungsooksung?from=share&type=DINING
최원석의돼지한판&amp;서해쭈꾸미 건대1호점,"한식>육류,고기요리",서울특별시 광진구 아차산로 199 성빌딩,37.5418214,127.0657289,,http://www.instagram.com/pig_k.o
건대 고기굽는놈 본점,"한식>육류,고기요리",서울특별시 광진구 아차산로31길 8 고기굽는놈,37.5413316,127.0694471,,https://app.catchtable.co.kr/ct/shop/gogi_
장충동한방족발,"한식>족발,보쌈",서울특별시 광진구 자양로13나길 4 1층,37.5336659,127.0807407,,
건대 숯불부자곱창,"한식>곱창,막창,양",서울특별시 광진구 동일로24길 102,37.5422956,127.0704986,,https://blog.naver.com/didcjf0414
함흥본가면옥 건대점,한식>냉면,서울특별시 광진구 광나루로 456 (화양동),37.5452287,127.0798987,,https://www.instagram.com/hbmmj
제주곤이칼국수 건대점,"한식>칼국수,만두",서울특별시 광진구 능동로13길 12,37.5427530,127.0711937,,
돕감자탕전문점,한식>감자탕,서울특별시 광진구 아차산로31길 9,37.5414896,127.0692665,,https://www.instagram.com/dobgamjatang/
수돈재,한식>감자탕,서울특별시 광진구 자양로45길 39,37.5528088,127.0907910,,
조선솥뚜껑감자탕,한식>감자탕,서울특별시 광진구 동일로24길 85,37.5426814,127.0696844,,http://조그삼.com
건대통큰감자탕 어린이대공원본점,한식>감자탕,서울특별시 광진구 광나루로26길 16 1층 통큰감자탕,37.5454986,127.0768482,,
신선설농탕 광나루역점,"한식>곰탕,설렁탕",서울특별시 광진구 천호대로 813 신성빌딩,37.5456490,127.1043180,,https://www.instagram.com/sinseonseolnongtang?igsh=dHU0NWVlczV3bDY5
한촌설렁탕 건대입구역점,"한식>곰탕,설렁탕",서울특별시 광진구 아차산로 241,37.5403849,127.0701567,,https://baemin.me/qd2Xgag70
신선설농탕 자양점,"한식>곰탕,설렁탕",서울특별시 광진구 자양로 139 신선설농탕자양점,37.5403156,127.0828995,,http://www.shinsunseolnongtang.co.kr/
놀부부대찌개 건대스타시티점,"한식>찌개,전골",서울특별시 광진구 아차산로 262 더샵스타시티,37.5382023,127.0734681,,
형제특수부위 구로디지털단지역점,"한식>육류,고기요리",서울특별시 구로구 디지털로32나길 17-12,37.4843628,126.8998316,,https://app.catchtable.co.kr/ct/shop/gudibro
마포족발순대국,"한식>족발,보쌈",서울특별시 구로구 경인로 661 신도림1차푸르지오,37.5094337,126.8877731,,
신도림참족발,"한식>족발,보쌈",서울특별시 구로구 경인로 661 신도림1차푸르지오,37.5098654,126.8883892,,
대두족발 구로디지털단지역점,"한식>족발,보쌈",서울특별시 구로구 디지털로32길 97-6 1층 대두족발 구로디지털단지역점,37.4832230,126.9008094,,https://www.instagram.com/ddjokbal/
참조은순대국전문점 구로직영점,"한식>순대,순댓국",서울특별시 구로구 구로중앙로 47,37.4939682,126.8895392,,http://cityfood.co.kr/file2/h_0078/38843/
5.13낙곱새 구로디지털직영점,"한식>곱창,막창,양",서울특별시 구로구 디지털로 288 지하 1층 115호,37.4841335,126.8956955,,https://www.instagram.com/5.13_franchise
옛날황소곱창,"한식>곱창,막창,양",서울특별시 구로구 디지털로32나길 16 1층 옛날황소곱창,37.4838333,126.9005158,,https://blog.naver.com/ohime728/223039421550
김돈이 구로점,한식>돼지고기구이,서울특별시 구로구 디지털로32다길 15 영우빌딩,37.4820817,126.8999011,,
금성관나주곰탕 구로직영점,"한식>곰탕,설렁탕",서울특별시 구로구 디지털로32길 92 1층 101호,37.4828547,126.8999400,,https://smartstore.naver.com/slow_naju
서울안심축산 신도림푸르지오1차점,"한식>육류,고기요리",서울특별시 구로구 경인로 661 2층 전문식당가,37.5094489,126.8877687,,https://app.catchtable.co.kr/ct/shop/impery
서일순대국전문 구로점,"한식>순대,순댓국",서울특별시 구로구 구로중앙로 6 서일순대국,37.4911127,126.8927211,,
미켈고깃집 구로점,"한식>육류,고기요리",서울특별시 구로구 디지털로34길 55 코오롱싸이언스밸리2차 지하 105호,37.4841594,126.8994585,,
맛찬들왕소금구이 구로점,"한식>육류,고기요리",서울특별시 구로구 디지털로32나길 17-28,37.4848886,126.8997470,,http://www.instagram.com/mcdgrd
왕뼈해장국 고척점,한식>감자탕,서울특별시 구로구 중앙로 101 청솔우성아파트,37.5064179,126.8598840,,
원당감자탕 구로직영점,한식>감자탕,서울특별시 구로구 디지털로31길 38-9,37.4858369,126.8931759,,
부자감자탕 오류동본점,한식>감자탕,서울특별시 구로구 경인로25길 14 1층,37.4970316,126.8442864,,
신선설농탕 고척점,"한식>곰탕,설렁탕",서울특별시 구로구 경인로 387 고척동 72-1 신선설농탕,37.4969863,126.8627961,,http://www.shinsunseolnongtang.co.kr/
국밥장인 구로디지털점,한식>국밥,서울특별시 구로구 시흥대로 565 1층,37.4834993,126.9015620,,
정심재,"한식>곰탕,설렁탕",서울특별시 구로구 디지털로26길 111 1층 108호,37.4824976,126.8967713,,
본가설렁탕 구로점,"한식>곰탕,설렁탕",서울특별시 구로구 디지털로32길 97-39 1층 본가설렁탕,37.4844169,126.9013940,,
한판소갈비,"한식>육류,고기요리",서울특별시 구로구 시흥대로163길 12 1층,37.4816508,126.8993210,,
가산물갈비&amp;즉석소불고기,"한식>육류,고기요리",서울특별시 금천구 가산디지털1로 128 STX V TOWER 110호,37.4770105,126.8839179,,https://smartstore.naver.com/gasanmulgalbi
명륜진사갈비 서울독산점,"한식>육류,고기요리",서울특별시 금천구 시흥대로 447 1층,37.4735761,126.8979033,,https://blog.naver.com/jinsafd
여신족발,"한식>족발,보쌈",서울특별시 금천구 벚꽃로38길 21,37.4822726,126.8843098,,
옛날그맛명동칼국수,"한식>칼국수,만두",서울특별시 금천구 가산디지털1로 131 BYC하이시티 지하1층,37.4770405,126.8819755,,
명동칼국수,"한식>칼국수,만두",서울특별시 금천구 벚꽃로 278 SJ테크노빌 지하1층 B154호 명동칼국수,37.4794855,126.8846163,,
인생파곱창,"한식>곱창,막창,양",서울특별시 금천구 시흥대로52길 42,37.4531984,126.9021562,,
종로곱창,"한식>곱창,막창,양",서울특별시 금천구 시흥대로70길 33,37.4564848,126.9020374,,
벽돌곱창 가산점,"한식>곱창,막창,양","서울특별시 금천구 디지털로10길 37 152, 153호",37.4771272,126.8899392,,https://www.벽돌곱창.com
대패88도매장 서울시흥점,한식>돼지고기구이,서울특별시 금천구 시흥대로 192 에이동 1층,37.4510259,126.9023206,,
아로가 독산본점,"한식>순대,순댓국","서울특별시 금천구 범안로 1212 1층 118호, 119호",37.4661540,126.8960229,,https://www.youtube.com/@arogakr
서귀포화로구이 금천점,한식>돼지고기구이,서울특별시 금천구 가산로 49 서귀포화로구이,37.4713147,126.8973923,,
대판 솥뚜껑김치삼겹살,한식>돼지고기구이,서울특별시 금천구 시흥대로 291 독산 롯데캐슬골드파크3차 WEST동 2층 240호,37.4598096,126.8964803,,
진영면옥,한식>냉면,서울특별시 금천구 가산로 22-5,37.4715782,126.9004447,,https://blog.naver.com/kimsw3710
참숯구이육향 가산디지털단지점,"한식>육류,고기요리",서울특별시 금천구 가산디지털1로 225 105호 육향,37.4850093,126.8792758,,https://app.catchtable.co.kr/ct/shop/chamsuchguiyughyang_guro
개성손만두요리전문점,"한식>칼국수,만두",서울특별시 금천구 가산로9길 22 개성손만두,37.4768083,126.8905398,,
솔향기해물칼국수,"한식>칼국수,만두",서울특별시 금천구 금하로 722,37.4504109,126.9099191,,
가산동닭한마리,한식>닭요리,서울특별시 금천구 가산로 142,37.4779630,126.8913129,,
남다른감자탕 가산디지털역점,한식>감자탕,"서울특별시 금천구 디지털로9길 99 101호, 102호(가산동, 스타밸리)",37.4813331,126.8848066,,http://www.namzatang.com/new/
도마다리뼈다귀전문점 시흥점,한식>감자탕,서울특별시 금천구 독산로 119,37.4580346,126.9051375,,
원조감자탕일미집 가산디지털점,한식>감자탕,"서울특별시 금천구 디지털로9길 99 1층 114, 116호",37.4815047,126.8851085,,
순대의 명가 미각,"한식>순대,순댓국","서울특별시 금천구 벚꽃로 309 가산디지털단지역 1호선 1번, 7호선 2,3,4번 출구",37.4807956,126.8831398,,
신선설농탕 독산점,"한식>곰탕,설렁탕",서울특별시 금천구 시흥대로 405 1층 신선설농탕,37.4699179,126.8976625,,https://www.shinsunseolnongtang.co.kr
강가네돌솥밥추어탕,한식>추어탕,"서울특별시 금천구 남부순환로 1420 ,",37.4803707,126.9085680,,
육대장 금천점,한식>국밥,서울특별시 금천구 시흥대로 291 310동 160호,37.4598787,126.8969535,,https://www.yukdaejang.com
우리소양평해장국본점,한식>해장국,서울특별시 금천구 범안로 1244 우리소양평해장국,37.4663047,126.9000532,,
육대장 가산디지털단지점,한식>국밥,서울특별시 금천구 가산디지털1로 186 제이플라츠 지하1층 B105-1호,37.4819670,126.8814893,,https://www.yukdaejang.com
부대청사 가산점,"한식>찌개,전골",서울특별시 금천구 가산디지털1로 168 A동 2층 219-3호,37.4808562,126.8820729,,https://blog.naver.com/budaechungsa
부대옥 가산직영점,"한식>찌개,전골","서울특별시 금천구 디지털로9길 46 . 204,205호",37.4798819,126.8870679,,https://www.instagram.com/budaeok_official
금천식당 시흥사거리점,"한식>육류,고기요리",서울특별시 금천구 시흥대로52길 38 지상1층,37.4530154,126.9022123,,
으뜸숙성한우No.9,"한식>육류,고기요리",서울특별시 금천구 시흥대로 291 금천구롯데캐슬골드파크3차 상가 1층 168호,37.4599810,126.8972935,,https://www.instagram.com/euddeum_korean.beef
이화순대국,"한식>순대,순댓국",서울특별시 금천구 시흥대로 237-12 1층,37.4549270,126.9000150,,
수락이오냉면 노원본점,한식>냉면,서울특별시 노원구 동일로237다길 7 창일빌딩 1층 수락이오냉면,37.6739259,127.0526503,,https://booking.naver.com/booking/6/bizes/528214/items/4944256?area=bmp
엄마마늘보쌈,"한식>족발,보쌈",서울특별시 노원구 석계로 18 엄마마늘보쌈,37.6163985,127.0644575,,
달인보쌈,"한식>족발,보쌈",서울특별시 노원구 동일로 1598 부흥빌딩,37.6709461,127.0564457,,
돈통마늘보쌈 노원역점,"한식>족발,보쌈",서울특별시 노원구 상계로7길 13 지현빌딩 1층,37.6573223,127.0651550,,
제일콩집,한식>두부요리,서울특별시 노원구 동일로174길 37-8,37.6195545,127.0775825,,http://cafe.naver.com/jkong/
옛날 칼국수,"한식>칼국수,만두",서울특별시 노원구 동일로 1417,37.6549822,127.0598493,,
숟가락반상 마실,한식>한정식,서울특별시 노원구 노원로 412,37.6534660,127.0680289,,https://www.instagram.com/nowonmasil
우리집곱창 본점,"한식>곱창,막창,양",서울특별시 노원구 덕릉로123길 11,37.6702147,127.0804863,,
노원왕곱창,"한식>곱창,막창,양",서울특별시 노원구 상계로 90 마블러스 2,37.6564912,127.0648246,,
무봉리토종순대국 공릉역점,"한식>순대,순댓국",서울특별시 노원구 동일로192길 63,37.6271145,127.0763206,,
엄마손칼국수,"한식>칼국수,만두",서울특별시 노원구 상계로39길 5,37.6710346,127.0802625,,
응순가재골수제비,"한식>칼국수,만두",서울특별시 노원구 동일로242길 100,37.6744711,127.0606632,,
수돈재 공릉점,한식>감자탕,서울특별시 노원구 동일로192길 5,37.6260415,127.0735234,,
풍성진감자탕 본점,한식>감자탕,서울특별시 노원구 노해로83길 10-11,37.6559612,127.0650236,,
천하뼈다귀감자탕,한식>감자탕,서울특별시 노원구 동일로 1595,37.6708629,127.0558822,,
소문난감자탕해장국,한식>감자탕,서울특별시 노원구 덕릉로 694 1층소문난감자탕,37.6595920,127.0755630,,
신선설농탕 노원역점,"한식>곰탕,설렁탕",서울특별시 노원구 노해로 511 1층,37.6554480,127.0647158,,https://www.shinsunseolnongtang.co.kr
현풍화로참숯불구이,"한식>육류,고기요리",서울특별시 노원구 동일로 1367,37.6507487,127.0611250,,
삼덕식당,한식>돼지고기구이,서울특별시 노원구 상계로5길 9 1층,37.6570285,127.0639298,,https://blog.naver.com/3samduk
마포생고기,"한식>육류,고기요리",서울특별시 노원구 동일로190길 39 마포생고기,37.6259638,127.0753202,,
신의주찹쌀순대 중계브라운스톤점,"한식>순대,순댓국",서울특별시 노원구 동일로203가길 29 브라운스톤 중계,37.6398763,127.0644148,,http://www.bigsoondae.com/
남가네설악추어탕 상계점,한식>추어탕,서울특별시 노원구 수락산로 212,37.6708559,127.0552410,,http://mrgfood.kr
고기싸롱 도봉보건소사거리점,"한식>육류,고기요리",서울특별시 도봉구 도봉로 578 1층,37.6561590,127.0395189,,https://blog.naver.com/gogissalon
창신동매운족발,"한식>족발,보쌈",서울특별시 도봉구 도봉로110나길 34,37.6474906,127.0352476,,
족돈,"한식>족발,보쌈",서울특별시 도봉구 방학로10길 68,37.6647892,127.0348473,,
소문난순대국왕족발,"한식>족발,보쌈",서울특별시 도봉구 도당로13가길 28,37.6661866,127.0369011,,
춘하추동 칼국수 방학점,"한식>칼국수,만두","서울특별시 도봉구 마들로 657 1층 109호, 110호",37.6687163,127.0458613,,
도봉산두부,한식>두부요리,서울특별시 도봉구 도봉산길 73,37.6862628,127.0378845,,
뚝배기손칼국수,"한식>칼국수,만두",서울특별시 도봉구 도봉로 683 뚝배기손칼국수,37.6653755,127.0419439,,
더곱창37번가,"한식>곱창,막창,양",서울특별시 도봉구 도봉로152길 37 1층,37.6694640,127.0459340,,http://coconutz.kr/3120
삼오집,"한식>곱창,막창,양",서울특별시 도봉구 도봉로165길 4,37.6776024,127.0445910,,
대구형제막창 방학역점,"한식>육류,고기요리>곱창,막창,양",서울특별시 도봉구 도봉로152길 23 1층 대구형제막창,37.6694980,127.0451290,,
신의주찹쌀순대 창동역점,"한식>순대,순댓국",서울특별시 도봉구 노해로63다길 17,37.6536547,127.0462906,,http://www.bigsoondae.com/
순대실록 창동씨드큐브점,"한식>순대,순댓국",서울특별시 도봉구 마들로13길 61 1층 108-2호,37.6542727,127.0501139,,https://www.instagram.com/sundaesilrok/
소문난 순대국,"한식>순대,순댓국",서울특별시 도봉구 도봉산3길 56,37.6849146,127.0435770,,
골목순대국,"한식>순대,순댓국",서울특별시 도봉구 도봉로133길 41,37.6577890,127.0375242,,
설담재 창동본점,"한식>곰탕,설렁탕",서울특별시 도봉구 도봉로 562 1층 설담재 창동본점,37.6548301,127.0392393,,http://suldamjae.com/
살살녹소 방학점,한식>소고기구이,서울특별시 도봉구 도봉로 663-8,37.6637885,127.0418943,,
최고집칼국수,"한식>칼국수,만두",서울특별시 도봉구 방학로 286 1층 최고집칼국수,37.6630932,127.0206650,,
조마루감자탕 쌍문점,한식>감자탕,서울특별시 도봉구 도봉로 569 예일빌딩,37.6559158,127.0387139,,
금강산감자탕 방학점,한식>감자탕,서울특별시 도봉구 도봉로 669,37.6642040,127.0423650,,http://food.dobong.go.kr/product/view1.asp?m_seq=14&pg=1&m_code=&c_code1=&c_code2=&SearchText=
이빠이뼈다귀 쌍문본점,한식>감자탕,서울특별시 도봉구 노해로60길 95 1층,37.6472282,127.0329422,,
도마다리뼈다귀전문점,한식>감자탕,서울특별시 도봉구 해등로 161 대성빌딩 1층 도마다리뼈다귀전문점,37.6569336,127.0383912,,
서래왕차돌 창동점,"한식>육류,고기요리",서울특별시 도봉구 덕릉로60길 23 1층,37.6391834,127.0403370,,
신서방부대찌개 방학본점,"한식>찌개,전골",서울특별시 도봉구 방학로 174,37.6625844,127.0329314,,
원조의정부부대찌개,"한식>찌개,전골",서울특별시 도봉구 해등로 156 1층 의정부부대찌개,37.6570064,127.0391008,,http://food.dobong.go.kr/product/view1.asp?m_seq=71&pg=10&m_code=&c_code1=&c_code2=&SearchText=
신가네 왕코 등갈비,한식>돼지고기구이,서울특별시 동대문구 한천로 202,37.5788464,127.0686720,,
최원석의돼지한판&amp;서해쭈꾸미 시립대점,"한식>육류,고기요리",서울특별시 동대문구 전농로 222,37.5839665,127.0534583,,http://www.instagram.com/pig_k.o
서울뼈구이 본점,"한식>족발,보쌈",서울특별시 동대문구 왕산로 274-1,37.5850980,127.0513160,,
회기왕족발보쌈,"한식>족발,보쌈",서울특별시 동대문구 회기로 158,37.5908469,127.0535459,,https://www.instagram.com/hoegi_king_jokbal?igsh=MXdvNncyc2FvdThoNw==
박가족미나리족발,"한식>족발,보쌈",서울특별시 동대문구 장한로27가길 37 1단지 102동 상가동 103호104호,37.5752669,127.0708187,,
부마보쌈족발 장안점,"한식>족발,보쌈",서울특별시 동대문구 장한로 54 1층 부마족발보쌈,37.5657501,127.0677531,,
홍능족발,"한식>족발,보쌈",서울특별시 동대문구 홍릉로 20,37.5821493,127.0447606,,
금면옥 원기회복 칼국수 장한평본점,"한식>칼국수,만두",서울특별시 동대문구 장한로 37 1층 101호,37.5645673,127.0664371,,https://www.instagram.com/geummyeonok
만선애꿈 장안점,"한식>해물,생선요리",서울특별시 동대문구 한천로 42 1층 만선애꿈,37.5664945,127.0621461,,
은하곱창,"한식>곱창,막창,양",서울특별시 동대문구 전농로15길 22 은하곱창,37.5781838,127.0563627,,https://smartstore.naver.com/
순대실록 청량리점,"한식>순대,순댓국",서울특별시 동대문구 답십리로 27 롯데캐슬SKY-L65 상가동 107호 순대실록 청량리점,37.5792332,127.0453225,,https://www.instagram.com/sundaesilrok/
신설동 부산양곱창,"한식>곱창,막창,양",서울특별시 동대문구 보문로 12 1층,37.5765693,127.0234307,,https://www.instagram.com/ssd_gobchang_official/?hl=ko
정편백 청량리본점,"한식>육류,고기요리",서울특별시 동대문구 서울시립대로12길 3 1층,37.5788154,127.0502384,,https://blog.naver.com/honeytips1004
정대감감자탕 본점,한식>감자탕,서울특별시 동대문구 천호대로83길 46 평산빌딩 1층 101호,37.5641225,127.0656053,,https://smartstore.naver.com/jdgtang
여기가좋겠네,한식>닭요리,서울특별시 동대문구 회기로21길 25 1층,37.5926341,127.0530870,,https://youtu.be/1nFKr8h0sxs
갈비명가이상 답십리점,한식>소고기구이,서울특별시 동대문구 천호대로 327,37.5645078,127.0563991,,https://www.instagram.com/esang1982
흥부골숯불갈비 장안2호점,"한식>육류,고기요리",서울특별시 동대문구 장한로 149,37.5737002,127.0715615,,
다미옥,한식>냉면,서울특별시 동대문구 경동시장로12길 52-1 1층 다미옥,37.5821460,127.0436577,,
소문난의정부부대찌개 고대점,"한식>찌개,전골",서울특별시 동대문구 안암로22길 5 소문난의정부부대찌개 고대점,37.5883084,127.0351625,,https://smartstore.naver.com/kfbuzzi
육전제면소,"한식>육류,고기요리",서울특별시 동대문구 난계로30길 16,37.5743029,127.0243657,,https://instagram.com/yukjeon_sikdang.official?igshid=b99dsa36rdjv
재벌국수 신설동점,한식>국수,서울특별시 동대문구 하정로3길 7-3 1층,37.5754651,127.0262570,,
고향집,"한식>순대,순댓국",서울특별시 동대문구 왕산로37길 7,37.5803401,127.0439022,,
오소록 답십리점,한식>국수,서울특별시 동대문구 전농로3길 1-2 1층,37.5680107,127.0566514,,http://instagram.com/osorok_tiger
한울갈비,"한식>육류,고기요리",서울특별시 동작구 동작대로1길 9 2호선 8번 출구로 나오신 후 좌측 골목 20m 전방 좌측에 위치. 4호선 9번 출구로 나오신 후 앞 우측 골목,37.4772321,126.9807888,,
명성왕족발,"한식>족발,보쌈","서울특별시 동작구 동작대로29길 3 1, 2층",37.4880471,126.9818122,,
송이족발 본점,"한식>족발,보쌈",서울특별시 동작구 사당로17길 11 1층,37.4837890,126.9740190,,
놀부한방족발,"한식>족발,보쌈",서울특별시 동작구 동작대로29나길 10,37.4885493,126.9806757,,
가마솥손두부 사당본점,한식>두부요리,서울특별시 동작구 남부순환로271길 20,37.4777431,126.9801335,,
고향 엄마손 생바지락 칼국수 신대방삼거리점,"한식>칼국수,만두",서울특별시 동작구 여의대방로22길 121 상가동 1층 1405호,37.4983873,126.9270622,,https://www.instagram.com/ummason_official/
육대장 푸줏간 이수역점,"한식>찌개,전골",서울특별시 동작구 동작대로31길 17 1층,37.4887818,126.9814027,,https://www.instagram.com/ydjisu
오드리곱창,"한식>곱창,막창,양",서울특별시 동작구 동작대로7길 65 1층,37.4779312,126.9791895,,
정남옥 노량진점,"한식>순대,순댓국",서울특별시 동작구 노량진로 148-5 1층,37.5132839,126.9424045,,
백호양대창,"한식>곱창,막창,양",서울특별시 동작구 동작대로25길 30 1층 백호양대창,37.4858369,126.9806264,,https://www.instagram.com/baekho_isu
어촌식당,"한식>해물,생선요리",서울특별시 동작구 상도로 122,37.5013800,126.9338059,,
노란돼지,"한식>육류,고기요리",서울특별시 동작구 동작대로7길 97 1층,37.4771451,126.9778246,,https://www.instagram.com/noran_pig
등나무집,"한식>곰탕,설렁탕",서울특별시 동작구 대림로 52,37.4881735,126.9078372,,
서울정육식당,"한식>육류,고기요리","서울특별시 동작구 사당로30길 154 1층, 2층",37.4779872,126.9805872,,
진주식당,한식>생선회,서울특별시 동작구 노들로 674 노량진수산물도매시장 5층 진주식당,37.5151981,126.9392848,,https://catchtable.co.kr/jinju
즉석 바지락손칼국수,"한식>칼국수,만두",서울특별시 동작구 상도로 77 바지락손칼국수,37.4998746,126.9291729,,
사당광안리 사당본점,한식>생선회,서울특별시 동작구 동작대로7길 5 사당광안리 1층,37.4799528,126.9813595,,https://www.instagram.com/sadang__gwangalli?igsh=MXdqemJta2VvZGZjbg==
운봉산장,"한식>육류,고기요리",서울특별시 동작구 장승배기로 118-1 신응범치과의원,37.5080790,126.9402580,,
갈매울 감자탕,한식>감자탕,서울특별시 동작구 양녕로 282-1 1층,37.5044321,126.9504086,,
국밥장인 이수점,한식>국밥,서울특별시 동작구 사당로 286 1층,37.4842230,126.9794916,,
큰솥설렁탕,"한식>곰탕,설렁탕",서울특별시 동작구 흑석로 102 중앙대학교병원,37.5070511,126.9608154,,
한촌설렁탕 보라매점,"한식>곰탕,설렁탕",서울특별시 동작구 보라매로5길 35 보라매현대아파트 1층 상가,37.4919477,126.9237125,,https://baemin.me/NHgigtnSQ
부대통령뚝배기 노량진점,"한식>찌개,전골",서울특별시 동작구 만양로 100 부대통령뚝배기 노량진점,37.5124589,126.9443834,,
각시보쌈,"한식>족발,보쌈",서울특별시 마포구 성지길 25 보광빌딩,37.5475100,126.9133940,,
연남족발1987 연남점,"한식>족발,보쌈",서울특별시 마포구 동교로 222 1층,37.5597891,126.9239621,,
옥동식,한식>국밥,서울특별시 마포구 양화로7길 44-10,37.5526833,126.9144811,,http://instagram.com/okdongsik
마포양지설렁탕,"한식>곰탕,설렁탕",서울특별시 마포구 새창로 6,37.5420571,126.9504338,,
육미안 연남점,한식>소고기구이,서울특별시 마포구 동교로38길 5 2층,37.5618595,126.9246428,,https://app.catchtable.co.kr/ct/shop/yookmian_yeonnam
상암일미락,한식>돼지고기구이,서울특별시 마포구 성암로13길 40 상암일미락,37.5763725,126.8972550,,https://www.instagram.com/ilmirack_dining
일등식당,한식>해장국,서울특별시 마포구 방울내로 82,37.5606012,126.9043521,,
마포진짜원조최대포 본점,"한식>육류,고기요리",서울특별시 마포구 만리재로1길 1-2 1층,37.5446329,126.9518260,,https://www.instagram.com/choidaepo_official
해정집,한식>국밥,서울특별시 마포구 양화로6길 45 1층 101호,37.5489290,126.9167238,,https://litt.ly/haejeongjip_?utm_source=naver&utm_medium=place&utm_campaign=기본세팅
인생감자탕 합정점,한식>감자탕,서울특별시 마포구 양화로1길 18 1층,37.5495372,126.9106323,,https://insaenggamjatang.com
원당감자탕 마포점,한식>감자탕,서울특별시 마포구 도화길 35 1층,37.5411699,126.9496048,,
서경도락 마포역점,한식>돼지고기구이,서울특별시 마포구 삼개로 21 근신제2별관,37.5383741,126.9475883,,https://blog.naver.com/seokyungdorak
마포옥,"한식>곰탕,설렁탕",서울특별시 마포구 토정로 312 1층 마포옥,37.5398916,126.9433125,,
합정옥,"한식>곰탕,설렁탕",서울특별시 마포구 양화로1길 21 2층,37.5495526,126.9104685,,
원조신촌설렁탕,"한식>곰탕,설렁탕",서울특별시 마포구 마포대로14길 16,37.5483083,126.9562750,,
콩불 홍대점,"한식>육류,고기요리",서울특별시 마포구 어울마당로 118 1층,37.5550890,126.9234029,,http://www.kongbul.com/
일편등심 홍대본점,"한식>육류,고기요리","서울특별시 마포구 홍익로6길 52 2, 3층 일편등심",37.5563081,126.9243939,,https://www.instagram.com/ilpyeon__offical
마포곱창타운 연남점,"한식>곱창,막창,양",서울특별시 마포구 동교로27길 20,37.5590716,126.9225339,,
공복식당 신촌점,한식>돼지고기구이,서울특별시 서대문구 연세로12길 23 1층,37.5590636,126.9383219,,https://blog.naver.com/gongbok_sinchon?tab=1
명성족발,"한식>족발,보쌈",서울특별시 서대문구 통일로 460,37.5896281,126.9435119,,
본가서대문족발 본점,"한식>족발,보쌈",서울특별시 서대문구 충정로6안길 54,37.5644552,126.9668935,,
영양왕족발,"한식>족발,보쌈",서울특별시 서대문구 가재울로 39 영양왕족발,37.5747969,126.9216122,,
종로보쌈,"한식>족발,보쌈",서울특별시 서대문구 충정로 73,37.5653260,126.9659572,,
서대문영양족발 본점,"한식>족발,보쌈",서울특별시 서대문구 통일로 377 1층,37.5837552,126.9491514,,
명물화로 신촌본점,"한식>육류,고기요리",서울특별시 서대문구 명물길 71 1층,37.5592707,126.9400770,,https://app.catchtable.co.kr/ct/shop/MyungmulHwaro
한촌설렁탕 북가좌점,"한식>곰탕,설렁탕",서울특별시 서대문구 응암로 67,37.5792090,126.9105950,,http://blog.naver.com/woddlrk
형제갈비,"한식>육류,고기요리",서울특별시 서대문구 명물1길 2,37.5578619,126.9373430,,
도깨비칼국수,"한식>칼국수,만두",서울특별시 서대문구 영천시장길 40 도깨비칼국수,37.5703707,126.9614284,,
유닭스토리 닭한마리 신촌점,한식>닭요리,서울특별시 서대문구 연세로4길 7 1층,37.5570470,126.9374476,,https://blog.naver.com/hotjazz22
평안도식당 신촌점,"한식>순대,순댓국",서울특별시 서대문구 연세로4길 12 1층,37.5570469,126.9377470,,https://www.instagram.com/leejin3020
나주향 나주곰탕 남가좌점,"한식>곰탕,설렁탕",서울특별시 서대문구 증가로 101 1층 나주향 나주곰탕,37.5761100,126.9255854,,https://www.instagram.com/njh_gomtang/
압구정화로구이 가좌역점,"한식>육류,고기요리",서울특별시 서대문구 수색로6길 8 1층 104호,37.5707373,126.9135498,,
슭돈 이대역본점,"한식>육류,고기요리",서울특별시 서대문구 신촌로 169 1층 슭돈 이대역본점,37.5569572,126.9448787,,https://www.instagram.com/ssgdon_official
돈불1971,한식>돼지고기구이,서울특별시 서대문구 연세로5다길 36 돈불1971,37.5569543,126.9336212,,https://blog.naver.com/yunicrom
화우 서대문역본점,한식>소고기구이,서울특별시 서대문구 통일로9안길 32,37.5659994,126.9654411,,https://app.catchtable.co.kr/ct/shop/hwauseodaemun
임병주산동칼국수,"한식>칼국수,만두",서울특별시 서초구 강남대로37길 65,37.4845716,127.0300034,,
"수향가족발,보쌈&amp;얼큰감자탕,불뼈찜","한식>족발,보쌈","서울특별시 서초구 남부순환로 2121-3 1, 2층",37.4767729,126.9846553,,
영동족발 양재3호점,"한식>족발,보쌈",서울특별시 서초구 남부순환로 2628-18 1층 영동족발 양재3호점,37.4842477,127.0383520,,https://www.instagram.com/youngdongjokbal
족슐랭 양재시민의숲역점,"한식>족발,보쌈",서울특별시 서초구 강남대로10길 13 1층 족슐랭,37.4682939,127.0408891,,http://족슐랭.com/
담,한식>한정식,서울특별시 서초구 남부순환로 2406 예술의전당 서예박물관 1층,37.4784026,127.0121404,,
노랑저고리 한정식,한식>한정식,서울특별시 서초구 서초대로73길 9 타임빌딩 5층,37.4983080,127.0252161,,
순대실록 센트럴시티점,"한식>순대,순댓국",서울특별시 서초구 신반포로 176 센트럴시티 중층 M9호,37.5042899,127.0048013,,https://www.instagram.com/sundaesilrok/
더막창스 강남본점,"한식>곱창,막창,양",서울특별시 서초구 서초대로77길 37 서초동월드 106호,37.5009217,127.0250411,,https://www.instagram.com/themakchang_gangnam
세광양대창 교대본점,"한식>곱창,막창,양","서울특별시 서초구 반포대로28길 79 1, 2층",37.4919807,127.0126238,,http://sgfco.kr
영동설렁탕,"한식>곰탕,설렁탕",서울특별시 서초구 강남대로101안길 24,37.5161676,127.0173691,,
보글이 생태탕왕코다리 양재역점,"한식>해물,생선요리",서울특별시 서초구 강남대로37길 56-18 서초에메랄드빌딩 1층,37.4854129,127.0305018,,https://catchtable.co.kr/caplia
서관면옥 교대본점,한식>냉면,서울특별시 서초구 서초대로56길 11,37.4939936,127.0172832,,https://blog.naver.com/seogwan_master
백년옥,한식>두부요리,서울특별시 서초구 남부순환로 2407,37.4811951,127.0137749,,
원당감자탕 사당점,한식>감자탕,"서울특별시 서초구 방배천로4길 9 2층, 3층",37.4781598,126.9833253,,
강남교자 본점,"한식>칼국수,만두",서울특별시 서초구 강남대로69길 11 삼미빌딩,37.5014856,127.0243176,,http://gyoja.gangnamlohas.com
이남장 서초점,"한식>곰탕,설렁탕",서울특별시 서초구 서초대로49길 4,37.4938442,127.0123448,,
부대찌개대사관 교대점,"한식>찌개,전골",서울특별시 서초구 반포대로28길 94 1층 103호 부대찌개대사관,37.4918816,127.0132565,,https://www.instagram.com/_embassyofficial/
제일곱창 본점,"한식>곱창,막창,양",서울특별시 성동구 고산자로 281 1층 제일곱창,37.5648702,127.0361642,,https://m.smartstore.naver.com/jeilgopchang
성수AGU,"한식>아귀찜,해물찜",서울특별시 성동구 상원길 48-1 성수AGU,37.5482393,127.0485757,,https://app.catchtable.co.kr/ct/shop/seongsu_AGU
성수일미락,한식>돼지고기구이,서울특별시 성동구 상원6나길 22-20 1층 성수일미락,37.5476474,127.0495907,,https://www.instagram.com/ilmirak_dining?utm_source=ig_web_button_share_sheet&igsh=ZDNlZDc0MzIxNw==
성수족발,"한식>족발,보쌈",서울특별시 성동구 아차산로7길 7 동진빌딩 1층 성수족발,37.5460720,127.0543700,,https://blog.naver.com/ssjb1983
박만배아리랑보쌈 왕십리점,"한식>족발,보쌈",서울특별시 성동구 무학봉28길 8 1층,37.5620515,127.0329142,,
권식족발 성수본점,"한식>족발,보쌈",서울특별시 성동구 아차산로7길 4 1층,37.5455394,127.0543292,,https://blog.naver.com/20002345
위풍당 성수점,"한식>족발,보쌈",서울특별시 성동구 성수일로8길 53 성수동복합시설,37.5452263,127.0563285,,https://blog.naver.com/silverywater
훼미리손칼국수보쌈,"한식>칼국수,만두",서울특별시 성동구 왕십리로 134,37.5495816,127.0446932,,
왕십리맛나곱창,"한식>곱창,막창,양",서울특별시 성동구 고산자로 281-1,37.5649665,127.0361594,,
말방국밥 성수본점,한식>국밥,서울특별시 성동구 광나루로8길 9 1층 말방국밥 성수본점,37.5477617,127.0637421,,https://www.instagram.com/malbang.gukbap?igsh=M2Vic3FleWczMjJz
비사벌 전주 콩나물 국밥,한식>국밥,서울특별시 성동구 왕십리로6길 1-2,37.5463535,127.0450375,,
대성갈비,"한식>육류,고기요리",서울특별시 성동구 상원1길 26 서울숲 A타워 101호~103호,37.5464113,127.0482346,,
소문난성수감자탕 별관,한식>감자탕,서울특별시 성동구 연무장7길 4 해피드림,37.5430097,127.0545593,,
돈골약방 성수점,"한식>곰탕,설렁탕",서울특별시 성동구 성수일로8길 28 1층,37.5458864,127.0536298,,https://www.돈골약방.com
마장동한우촌,"한식>육류,고기요리",서울특별시 성동구 마장로35길 68 마축일축산물시장,37.5708190,127.0413490,,
한촌설렁탕 성수뚝도점,"한식>곰탕,설렁탕",서울특별시 성동구 뚝섬로 389 성수동빌딩,37.5392413,127.0539686,,https://baemin.me/MC5Raim8J
마시쏘부대찌개 성수직영점,"한식>찌개,전골",서울특별시 성동구 연무장5가길 25 1층 116호,37.5434363,127.0554883,,https://www.instagram.com/macizo_budae
김통,한식>돼지고기구이,서울특별시 성북구 동소문로 124,37.5938284,127.0186016,,http://kim-tong.com
석계창신동매운족발 1호점,"한식>족발,보쌈",서울특별시 성북구 한천로78길 57 1층 본점 1호점,37.6129708,127.0647322,,
오백집모자족발,"한식>족발,보쌈",서울특별시 성북구 동소문로20길 20,37.5916835,127.0165655,,
손정보쌈 성신여대점,"한식>족발,보쌈",서울특별시 성북구 보문로30길 36 1층,37.5890708,127.0194068,,
잘빠진메밀 성신여대직영점,한식>막국수,서울특별시 성북구 보문로30길 13 1층,37.5885313,127.0184444,,https://www.instagram.com/jalppajin_sungshin
서도바지락칼국수,"한식>칼국수,만두",서울특별시 성북구 동소문로20길 28-8,37.5913649,127.0163250,,
성북동 명문막국수,한식>막국수,서울특별시 성북구 창경궁로 319,37.5883363,127.0048117,,
종로곱창,"한식>곱창,막창,양",서울특별시 성북구 동소문로6길 8,37.5888536,127.0081216,,
고석환손만두전골,"한식>칼국수,만두",서울특별시 성북구 성북로2길 55 우리빌딩 1층,37.5901111,127.0085954,,https://blog.naver.com/gsh6082
계모임 성신여대본점,한식>닭갈비,"서울특별시 성북구 보문로30라길 5-10 1층, 2층",37.5895734,127.0192223,,
동우설렁탕 본점,"한식>곰탕,설렁탕",서울특별시 성북구 개운사길 45,37.5883539,127.0291340,,
정지춘 설렁탕,"한식>곰탕,설렁탕",서울특별시 성북구 화랑로40길 46 1층 정지춘설렁탕,37.6134237,127.0640375,,
기차순대국,"한식>순대,순댓국",서울특별시 성북구 솔샘로18길 91,37.6089346,127.0087058,,
꾸이꾸이멱살 성신여대본점,"한식>육류,고기요리",서울특별시 성북구 동소문로22길 25-5 1층,37.5919486,127.0182679,,https://www.instagram.com/9292_meoksal
태조감자국,한식>감자탕,서울특별시 성북구 보문로34길 43 세학빌딩 1층,37.5907800,127.0177100,,https://www.instagram.com/taejo_gamjaguk
장수감자탕,한식>감자탕,서울특별시 성북구 도봉로3길 9-10 장수감자탕,37.6100176,127.0294765,,
조마루감자탕 석관점,한식>감자탕,서울특별시 성북구 화랑로 262,37.6113020,127.0583680,,http://www.jomaru.co.kr/
아리랑 수미감자탕 본점,한식>감자탕,서울특별시 성북구 아리랑로 54 1층,37.5975831,127.0148621,,
갈비명가이상 길음신관,"한식>육류,고기요리",서울특별시 성북구 정릉로 395,37.6039071,127.0256874,,https://smartstore.naver.com/esang1982
신의주찹쌀순대 길음뉴타운점,"한식>순대,순댓국",서울특별시 성북구 길음로 33 삼성래미안 상가 지하 A 206호,37.6051215,127.0221583,,http://www.bigsoondae.com/
고센 기와집갈비25,"한식>육류,고기요리",서울특별시 성북구 화랑로25길 18 고센 기와집갈비25,37.6094284,127.0522678,,
밀각,"한식>족발,보쌈",서울특별시 송파구 송파대로30길 36 1층 밀각,37.4957383,127.1210177,,https://www.instagram.com/mealgak/
산들해 송파점,한식>한정식,서울특별시 송파구 위례성대로 6 현대토픽스 2층,37.5169163,127.1131907,,
진곱창,"한식>곱창,막창,양",서울특별시 송파구 올림픽로32길 24 1층 103호,37.5138739,127.1095074,,
청년감자탕 송파 본점,한식>감자탕,서울특별시 송파구 오금로19길 5 1층 청년감자탕,37.5103294,127.1133486,,http://cngamja.com
우대포 방이점,한식>소고기구이,서울특별시 송파구 오금로13길 3-11 1층 103-1호,37.5137172,127.1079636,,
일월고기,"한식>육류,고기요리",서울특별시 송파구 오금로15길 7-16,37.5129895,127.1089464,,
풍년뼈다귀해장국,한식>해장국,서울특별시 송파구 가락로 94,37.5007408,127.1066239,,
행복한 순정감자탕 문정 직영1호점,한식>감자탕,서울특별시 송파구 송파대로 167 테라타워 A동 지하 1층 G181호,37.4846615,127.1209336,,
본가설렁탕,"한식>곰탕,설렁탕",서울특별시 송파구 석촌호수로 204,37.5062720,127.0998875,,
오뎅식당 롯데월드몰점,"한식>찌개,전골",서울특별시 송파구 올림픽로 300 롯데월드몰 6층,37.5133639,127.1042470,,
가마솥장우왕족발,"한식>족발,보쌈",서울특별시 양천구 목동중앙북로 16 장우족발,37.5483445,126.8653699,,http://instagram.com/
명가들깨칼국수 목동본점,"한식>칼국수,만두",서울특별시 양천구 은행정로 12,37.5207667,126.8601104,,
사위식당 현대백화점 목동점,"한식>곱창,막창,양",서울특별시 양천구 목동동로 257 6층,37.5263706,126.8754677,,https://www.facebook.com/awee.official/
대박곱창 본점,"한식>곱창,막창,양",서울특별시 양천구 오목로 170 1층 대박곱창,37.5248681,126.8562400,,https://www.instagram.com/daebak26018892/
하순옥황금안동국시 목동본점,"한식>칼국수,만두",서울특별시 양천구 목동서로 213 세신비젼프라자 지하1층,37.5281247,126.8705897,,https://youtube.com/@golden_noodles.by_ok?si=j4-KnxnJLnGLCrqd
나주관,"한식>곰탕,설렁탕",서울특별시 양천구 오목로 313-2,37.5252764,126.8725715,,
정진식당,한식>돼지고기구이,서울특별시 양천구 신정중앙로 94,37.5262839,126.8620159,,
송추가마골 인어반 목동점,"한식>육류,고기요리",서울특별시 양천구 목동동로 293 현대41타워 3층,37.5281873,126.8758793,,https://blog.naver.com/scgamagoll
우직서울 목동본점,한식>소고기구이,서울특별시 양천구 목동중앙본로29길 6 1층,37.5444883,126.8702872,,https://app.catchtable.co.kr/ct/shop/Xuzikx
양천뼈다귀본점,한식>감자탕,서울특별시 양천구 목동동로 258,37.5258305,126.8744670,,
본말감자탕 신정네거리역점,한식>감자탕,서울특별시 양천구 중앙로 259 1층,37.5194253,126.8529585,,https://blog.naver.com/purumfns
명품청기와뼈감자탕 신월점,한식>감자탕,서울특별시 양천구 지양로 62 1층,37.5212445,126.8343671,,
곰달래감자탕본사직영점,한식>감자탕,서울특별시 양천구 남부순환로 368,37.5342973,126.8290089,,
락감감자탕 신정네거리역점,한식>감자탕,서울특별시 양천구 신월로 318 1층,37.5213116,126.8561514,,
소품은돼지 정육식당 본점,"한식>육류,고기요리",서울특별시 양천구 신월로 133 소품은돼지,37.5169989,126.8386087,,
양천옥설렁탕,"한식>곰탕,설렁탕",서울특별시 양천구 등촌로 86 양천옥설렁탕,37.5376642,126.8638707,,https://youtu.be/SmiumCwtJ1U
임꺽정부대찌개,"한식>찌개,전골",서울특별시 양천구 목동동로12길 27,37.5227618,126.8743907,,http://imkkeokjeong.jalib.site/
봉고기 등촌점,"한식>육류,고기요리",서울특별시 양천구 목동중앙북로7가길 43 1층,37.5494751,126.8650217,,
어촌마을,"한식>해물,생선요리",서울특별시 양천구 오목로 58,37.5222949,126.8438579,,
땅스부대찌개 목사랑시장점,"한식>찌개,전골",서울특별시 양천구 목동중앙남로 57 1층 땅스부대찌개,37.5387486,126.8660872,,https://www.youtube.com/@tsbudae_official
청기와타운 목동41타워점,"한식>육류,고기요리",서울특별시 양천구 목동동로 293 현대41타워 2층,37.5281774,126.8757769,,https://chungkiwa.wywh.co.kr/
고반식당블랙 여의도본점,"한식>육류,고기요리",서울특별시 영등포구 여의대방로67길 21 1층 고반식당블랙 여의도본점,37.5205999,126.9295258,,https://www.instagram.com/goban_black_official/
월화고기 문래점,"한식>육류,고기요리",서울특별시 영등포구 당산로 34 지번 서울 영등포구 문래동3가 55-5,37.5174632,126.8964938,,https://www.instagram.com/wolhwa.mullae/
허브족발,"한식>족발,보쌈",서울특별시 영등포구 당산로 232 2층 허브족발,37.5342557,126.9025793,,
이조보쌈,"한식>족발,보쌈",서울특별시 영등포구 당산로 244,37.5349650,126.9031110,,
삼해집 영등포점,"한식>족발,보쌈",서울특별시 영등포구 영등포로 250,37.5189169,126.9090178,,http://www.samhae1.kr
사위식당 여의도점,"한식>곱창,막창,양",서울특별시 영등포구 국제금융로2길 32 2층 205호,37.5238818,126.9241380,,https://blog.naver.com/sawee_offical
원조마늘곱창 문래본점,"한식>곱창,막창,양",서울특별시 영등포구 경인로79길 17-1 1층,37.5133515,126.8934619,,https://app.catchtable.co.kr/ct/shop/wonjo_gobchang
다케오 호르몬 데판야끼 문래점,"한식>육류,고기요리",서울특별시 영등포구 도림로 434-7,37.5147205,126.8949378,,https://www.instagram.com/takeo_hormone/
화목순대국,"한식>순대,순댓국",서울특별시 영등포구 여의대방로 383 1F (경도상가 1층),37.5194005,126.9316586,,
3일한우국밥,한식>국밥,서울특별시 영등포구 영등포로 204,37.5199394,126.9040524,,
정인면옥 본점,한식>냉면,서울특별시 영등포구 국회대로76길 10 기독교침례회총회빌딩 1층,37.5306331,126.9217518,,
소고기 땡기는날 값진식육,한식>소고기구이,서울특별시 영등포구 선유로 58-4 대성빌딩 1층 값진식육,37.5190671,126.8898154,,https://smartstore.naver.com/sikk6
제일제면소 여의도IFC몰점,한식>국수,서울특별시 영등포구 국제금융로 10 IFC몰 L3층,37.5253096,126.9252553,,http://www.cheiljemyunso.co.kr/
방이편백 육분삼십 여의도 본점,"한식>육류,고기요리","서울특별시 영등포구 의사당대로 108 2층 204호, 205호",37.5210144,126.9239916,,
원조감자탕 일미집 영등포직영점,한식>감자탕,서울특별시 영등포구 영중로 43 1층,37.5203310,126.9043914,,
삼삼뼈국 여의도점,한식>감자탕,서울특별시 영등포구 국회대로74길 10 1층,37.5303288,126.9208880,,https://33soup.co.kr/
대한옥,"한식>곰탕,설렁탕",서울특별시 영등포구 영등포로51길 6 1층 대한옥,37.5193654,126.9109543,,
육영토종한우 본점,한식>소고기구이,서울특별시 영등포구 당산로 160,37.5287053,126.8981061,,http://www.sixzero.kr
하동관 여의도직영1호점,"한식>곰탕,설렁탕",서울특별시 영등포구 은행로 3 익스콘벤처타워,37.5274729,126.9196423,,
하동관 여의도역점,"한식>곰탕,설렁탕",서울특별시 영등포구 여의나루로 50 한국교직원공제회관 지하1층 b1-8호,37.5218052,126.9256512,,
느루집 문래본점,한식>닭갈비,"서울특별시 영등포구 당산로 34 112호, 113호",37.5175847,126.8961098,,https://smartstore.naver.com/neuruzip
청기와타운 영등포본점,"한식>육류,고기요리",서울특별시 영등포구 영중로10길 32-4,37.5184128,126.9084652,,
고향옥얼큰순대국 여의도점,"한식>순대,순댓국",서울특별시 영등포구 국회대로72길 17 104호,37.5295724,126.9211620,,https://youtube.com/@gohyangok
석암생소금구이 용산점,"한식>육류,고기요리",서울특별시 용산구 한강대로 49 1층,37.5255679,126.9641089,,https://seogam.com/
충무칼국수,"한식>족발,보쌈",서울특별시 용산구 한강대로104길 38 충무칼국수,37.5502498,126.9743444,,
이조순대국,"한식>순대,순댓국",서울특별시 용산구 원효로41길 54 이조순대국,37.5352498,126.9602673,,
유진막국수,한식>막국수,서울특별시 용산구 장문로 18,37.5284554,126.9924207,,
장충동한방족발 용산용문시장 본점,"한식>족발,보쌈",서울특별시 용산구 효창원로42길 22 1층 장충동한방족발,37.5363573,126.9601087,,
오준이네감자탕 신용산점,한식>감자탕,"서울특별시 용산구 한강대로 120 1, 2층",37.5304035,126.9694334,,https://www.instagram.com/ohjun2ne_official
별진화로구이,"한식>육류,고기요리",서울특별시 용산구 한강대로77길 11 1층 별진,37.5417750,126.9721264,,https://app.catchtable.co.kr/ct/shop/rkd0398
세광양대창 용산점,"한식>곱창,막창,양",서울특별시 용산구 한강대로 144 1층,37.5319879,126.9708886,,http://sgfco.kr
효자막창 용산점,"한식>곱창,막창,양",서울특별시 용산구 한강대로52길 22 1층 102호,37.5318320,126.9722641,,https://www.instagram.com/hyojamakchang_ys
우월소곱창 남영직영점,"한식>곱창,막창,양",서울특별시 용산구 한강대로76길 11-44 1층,37.5425786,126.9736580,,
백랑,한식>국밥,서울특별시 용산구 한강대로15길 23 1층,37.5260741,126.9632032,,
말방국밥 용산본점,한식>국밥,서울특별시 용산구 한강대로52길 42 1층,37.5312089,126.9732085,,https://app.catchtable.co.kr/ct/shop/malbang_yongsan?from=share&type=DINING
동아냉면 이태원점,한식>냉면,서울특별시 용산구 대사관로 45-1,37.5337000,127.0032875,,
고청담 용산점,"한식>육류,고기요리",서울특별시 용산구 한강대로 100 아모레퍼시픽 본사 B1F,37.5287912,126.9686735,,https://app.catchtable.co.kr/ct/shop/gocheongdam_yongsan
문배동육칼 본점,"한식>칼국수,만두",서울특별시 용산구 백범로90길 50,37.5366330,126.9703366,,http://m.smartstore.naver.com/yukkal2020
한촌설렁탕 용산아이파크몰점,"한식>곰탕,설렁탕",서울특별시 용산구 한강대로23길 55 용산역. 동관 4층,37.5304233,126.9651823,,http://www.hanchon.kr/new/board/index.php?board=map_01&sca=all
나리의 집,한식>돼지고기구이,서울특별시 용산구 이태원로 245,37.5370050,127.0001290,,
바다식당,"한식>찌개,전골",서울특별시 용산구 이태원로 245 2층,37.5368385,127.0001726,,
놀부보쌈&amp;부대찌개 용산역사아이파크몰점,"한식>족발,보쌈",서울특별시 용산구 한강대로23길 55 현대아이파크몰,37.5299174,126.9651347,,http://www.nolboo.co.kr/
창화돈 용산본점,"한식>육류,고기요리","서울특별시 용산구 백범로99길 56 1, 2층",37.5359424,126.9726795,,https://www.instagram.com/chang_meat
순대실록 아이파크몰점,"한식>순대,순댓국",서울특별시 용산구 한강대로23길 55 리빙파크 D7 7층 순대실록,37.5297718,126.9647415,,https://www.instagram.com/sundaesilrok/
뭉텅 연신내점,한식>돼지고기구이,서울특별시 은평구 연서로29길 22 1층 뭉텅,37.6196901,126.9180143,,https://blog.naver.com/moongteong/
보들이족발 연신내점,"한식>족발,보쌈",서울특별시 은평구 연서로 230-10 보들이족발,37.6182465,126.9209925,,https://www.youtube.com/watch?v=pTQPYaGuGzY
명성왕족발 연신내점,"한식>족발,보쌈",서울특별시 은평구 통일로 850,37.6191765,126.9216029,,
삼정족발,"한식>족발,보쌈",서울특별시 은평구 통일로65길 10-8 1층 삼정족발,37.6096785,126.9300291,,
충무칼국수,"한식>칼국수,만두",서울특별시 은평구 은평로 193 2층 충무칼국수,37.6017926,126.9292597,,https://www.ok114.co.kr/0231423198/
삼오순대국 불광역점,"한식>순대,순댓국",서울특별시 은평구 불광로1길 2 삼오순대국,37.6102856,126.9280974,,
이가네가마솥설렁탕,"한식>곰탕,설렁탕",서울특별시 은평구 진흥로 130,37.6075457,126.9246634,,http://leeganesulrungtang.cityfood.co.kr/
넷길이콩나물국밥 본점,한식>해장국,서울특별시 은평구 진흥로 139 용진빌딩,37.6083409,126.9253458,,https://www.instagram.com/fourgood79
역말리 순대국밥,"한식>순대,순댓국",서울특별시 은평구 서오릉로 106 1층,37.6094704,126.9203900,,https://www.instagram.com/yeokmalri__/
송추가마골 은평2호점,"한식>육류,고기요리",서울특별시 은평구 북한산로 228-1,37.6508349,126.9375601,,http://www.gamagoll.com/
훈연가,"한식>육류,고기요리",서울특별시 은평구 연서로29길 17-6 1층,37.6188829,126.9182534,,https://www.instagram.com/hoonyeonga?igsh=ZHZuOXByZWhwcWNq
서부감자국,한식>감자탕,서울특별시 은평구 서오릉로 8,37.6022569,126.9269249,,
미소복 원조 양평해장국,한식>해장국,서울특별시 은평구 연서로 203,37.6169403,126.9187505,,
청진동해장국 신사동점,한식>해장국,서울특별시 은평구 은평로3길 3 1층,37.5992630,126.9146900,,http://www.chungjindong.co.kr/
금바위감자탕 증산점,한식>감자탕,서울특별시 은평구 은평로 151 1층,37.6011242,126.9244418,,
봉희설렁탕 본점,"한식>곰탕,설렁탕",서울특별시 은평구 증산로 413,37.5930276,126.9138611,,
만포면옥 본점,한식>냉면,서울특별시 은평구 연서로 171 백년가게 만포면옥,37.6141770,126.9175294,,https://www.instagram.com/manpo.official
이조가마솥설렁탕,"한식>곰탕,설렁탕",서울특별시 은평구 연서로 58 1층,37.6042320,126.9158799,,
부찌부찌 부대찌개,"한식>찌개,전골",서울특별시 은평구 은평로 22 1층 부찌부찌,37.5977469,126.9104706,,
오늘은 보글부대,"한식>찌개,전골",서울특별시 은평구 불광천길 430 1층,37.5932112,126.9150799,,http://www.instagram.com/todaybudae79
오뎅식당 롯데몰 은평점,"한식>찌개,전골",서울특별시 은평구 통일로 1050,37.6376012,126.9181097,,
명당만두,"한식>칼국수,만두",서울특별시 은평구 응암로12길 10 명당만두,37.5877976,126.9178350,,
상록회관연탄구이 연신내점,한식>돼지고기구이,서울특별시 은평구 연서로29길 20-17 1층,37.6200228,126.9188079,,
냉삼슈퍼 은평본점,한식>돼지고기구이,서울특별시 은평구 갈현로 156 1층 냉삼슈퍼,37.6118234,126.9114697,,
삼해집 종로점,"한식>족발,보쌈",서울특별시 종로구 수표로20길 16-15,37.5699683,126.9909814,,http://www.samhae1.kr
종로 흥부가,"한식>족발,보쌈",서울특별시 종로구 수표로20길 22 1층,37.5699114,126.9908525,,
종로보쌈 장군굴보쌈,"한식>족발,보쌈",서울특별시 종로구 수표로20길 22,37.5699147,126.9908212,,https://blog.naver.com/leews3313
천하보쌈,"한식>족발,보쌈",서울특별시 종로구 창덕궁1길 8 천하보쌈,37.5794396,126.9888545,,http://instagram.com/chunhabs_official
대성식당,"한식>찌개,전골",서울특별시 종로구 종로26길 14-3,37.5696749,126.9946750,,http://pf.kakao.com/_EgurG
화목순대국전문 광화문1호점,"한식>순대,순댓국",서울특별시 종로구 새문안로5길 11,37.5712514,126.9747764,,
미도갈비,"한식>육류,고기요리",서울특별시 종로구 삼일대로15길 25 1층,37.5687918,126.9861462,,https://www.youtube.com/watch?v=IyidpeOR-UM
부촌육회 본점,"한식>육류,고기요리",서울특별시 종로구 종로 200-12 1층 부촌육회,37.5703939,126.9999111,,
육미안 혜화점,한식>소고기구이,서울특별시 종로구 창경궁로 246-4 1층 육미안,37.5832566,126.9993945,,https://app.catchtable.co.kr/ct/shop/yookmian
암소서울 스타필드 애비뉴 그랑서울점,한식>소고기구이,서울특별시 종로구 종로 33 그랑서울 1타워 4층 암소서울,37.5709600,126.9814392,,https://www.instagram.com/imsoseoul.official
모도우 광화문점,한식>소고기구이,서울특별시 종로구 율곡로 6 트윈트리타워 B동 M층,37.5755265,126.9799056,,https://openine.com/PARTY
뼈탄집 서촌본점,"한식>육류,고기요리",서울특별시 종로구 자하문로1길 13,37.5764468,126.9717062,,http://www.bornpig.co.kr/index2.php
광화문뚝감,한식>감자탕,서울특별시 종로구 새문안로3길 21,37.5720689,126.9725919,,
대성집,"한식>곰탕,설렁탕",서울특별시 종로구 사직로 5,37.5727012,126.9608828,,
이문설렁탕,"한식>곰탕,설렁탕",서울특별시 종로구 우정국로 38-13,37.5727663,126.9839047,,
백제정육점,"한식>육류,고기요리",서울특별시 종로구 종로35길 34,37.5726483,127.0038893,,
영춘옥,"한식>곰탕,설렁탕",서울특별시 종로구 돈화문로5가길 13,37.5713727,126.9915666,,
유진식당,한식>냉면,서울특별시 종로구 종로17길 40,37.5720328,126.9882793,,
여진곱,"한식>곱창,막창,양",서울특별시 종로구 삼일대로 430 1층 (주)여진곱,37.5731350,126.9883453,,
전주집,한식>생선구이,서울특별시 종로구 종로40가길 5,37.5702900,127.0063610,,
익선동목장 종로본점,"한식>육류,고기요리",서울특별시 종로구 돈화문로 53 1층,37.5731869,126.9911398,,http://www.instagram.com/iksun.farm
산청숯불가든 을지로,"한식>육류,고기요리",서울특별시 중구 을지로 114-6 1층,37.5658389,126.9906186,,https://www.instagram.com/sancheongin/
낙원의소바 보쌈칼국수 충무로역본점,"한식>족발,보쌈",서울특별시 중구 서애로 2 2층,37.5618772,126.9983275,,https://www.instagram.com/nakwonsoba
평안도족발집,"한식>족발,보쌈",서울특별시 중구 장충단로 174-6,37.5602114,127.0060720,,
하니칼국수,"한식>칼국수,만두",서울특별시 중구 퇴계로 411-15 1층 하니칼국수,37.5661854,127.0172182,,https://www.instagram.com/hani._.noodle
다케오 호르몬 데판야끼,"한식>육류,고기요리",서울특별시 중구 을지로12길 14 1층,37.5656421,126.9910268,,http://www.instagram.com/takeo_hormon
진성한우곱창 신당직영점,"한식>곱창,막창,양",서울특별시 중구 다산로 243-1,37.5648592,127.0159390,,
제일제면소 서울역사점,한식>국수,서울특별시 중구 한강대로 405 3층 제일제면소,37.5550945,126.9709865,,http://www.cheiljemyunso.co.kr/
후지야마,"한식>육류,고기요리",서울특별시 중구 수표로 48-15 후지야마,37.5655250,126.9908088,,
동원집,한식>감자탕,서울특별시 중구 퇴계로27길 48 1층 동원집,37.5633313,126.9913346,,
신동궁감자탕 명동직영점,한식>감자탕,서울특별시 중구 명동9길 43,37.5657027,126.9840283,,
하동관 명동본점,"한식>곰탕,설렁탕",서울특별시 중구 명동9길 12,37.5644272,126.9849722,,http://www.hadongkwan.co.kr
금성관 나주곰탕,"한식>곰탕,설렁탕",서울특별시 중구 남대문로 29 청남빌딩,37.5613997,126.9789044,,http://m.smartstore.naver.com/slow_naju
애성회관한우곰탕,"한식>곰탕,설렁탕",서울특별시 중구 남대문로5길 23 세창빌딩 1층,37.5624396,126.9789891,,
미성옥,"한식>곰탕,설렁탕",서울특별시 중구 명동길 25-11,37.5641835,126.9839596,,
중림장설렁탕,"한식>곰탕,설렁탕",서울특별시 중구 청파로 459-1,37.5602761,126.9677079,,
부대찌개대사관 시청점,"한식>찌개,전골",서울특별시 중구 세종대로 74-1 1층 103호 부대찌개대사관,37.5628167,126.9769336,,
산수갑산,"한식>순대,순댓국",서울특별시 중구 을지로20길 24,37.5653833,126.9953138,,
농민백암순대 시청직영점,"한식>순대,순댓국",서울특별시 중구 남대문로1길 33,37.5626099,126.9772550,,
소문난 황칠 순대국 왕족발,한식>국밥,서울특별시 중랑구 겸재로 217 1층,37.5894353,127.0916956,,
강릉장칼 신내역점,"한식>칼국수,만두",서울특별시 중랑구 용마산로 670 더테라스 B225~228호,37.6109129,127.1019596,,
울타리곱창,"한식>곱창,막창,양",서울특별시 중랑구 중랑역로 20 1층,37.5959397,127.0763504,,https://smartstore.naver.com/ultari4917178/products/6185887665
인생한우소곱창,"한식>곱창,막창,양",서울특별시 중랑구 망우로50길 33 1층,37.5957265,127.0894406,,http://pf.kakao.com/_kxoxjfn/friend
대박왕곱창,"한식>곱창,막창,양",서울특별시 중랑구 답십리로 367 1층,37.5716795,127.0813983,,http://instagram.com/daebakgob
참맛깔곱창,"한식>곱창,막창,양",서울특별시 중랑구 면목로74길 7 면목역 1번 출구 동원시장내 초입 1층 참맛깔곱창,37.5892041,127.0879840,,https://www.instagram.com/cmkkal_
소문난순대국,"한식>순대,순댓국",서울특별시 중랑구 상봉로11길 32,37.5900560,127.0916727,,
용마해장국,한식>해장국,서울특별시 중랑구 용마공원로5길 20 1층,37.5945502,127.1022911,,
완뚝감자탕 먹골본점,한식>감자탕,서울특별시 중랑구 동일로 941 101동상가 101호 완뚝감자탕 먹골본점,37.6143697,127.0764228,,
양지촌,"한식>육류,고기요리",서울특별시 중랑구 망우로 184,37.5927541,127.0733437,,
도톰 사가정점,한식>돼지고기구이,서울특별시 중랑구 면목로 302-1 1층,37.5792022,127.0870900,,
태평로부대찌개 홈플러스상봉점,"한식>찌개,전골",서울특별시 중랑구 망우로 353 B1층,37.5982973,127.0903644,,
박가뼈다귀감자탕 본점,한식>감자탕,서울특별시 중랑구 망우로 193,37.5937878,127.0740929,,http://instagram.com/parkga_24h
수제감자탕 본점,한식>감자탕,서울특별시 중랑구 사가정로52길 22 면목동 649-3 1층 수제감자탕,37.5798520,127.0869230,,
삼삼뼈국 망우점,한식>해장국,서울특별시 중랑구 망우로 422 1층,37.5993389,127.0988946,,https://www.instagram.com/samsam.soup/
태능설렁탕 본점,"한식>곰탕,설렁탕",서울특별시 중랑구 공릉로 65 1층 태릉설렁탕,37.6164954,127.0792389,,
흥부골숯불돼지왕갈비,"한식>육류,고기요리",서울특별시 중랑구 면목로 341,37.5822497,127.0884578,,
돈대감,"한식>육류,고기요리",서울특별시 중랑구 송림길 1,37.5989719,127.0951600,,
진국설렁탕,"한식>곰탕,설렁탕",서울특별시 중랑구 용마산로115길 102,37.5982237,127.0947500,,
한촌설렁탕 면목용마점,"한식>곰탕,설렁탕",서울특별시 중랑구 상봉로 39 MS빌딩 1층 한촌설렁탕,37.5895131,127.0934145,,http://pf.kakao.com/_xewyws
도가순대국,"한식>순대,순댓국",서울특별시 중랑구 봉화산로 189 대명아파트 상가 3층,37.6067156,127.0940151,,
